hotel_address,average_score,standard_deviation,skew,number_of_reviews,name,city,latitude,longitude
 s Gravesandestraat 55 Oost 1092 AA Amsterdam Netherlands,7.8362962963,1.89651611576,-0.793030063276,405,Hotel Arena,Amsterdam,52.3605759,4.9159683
1 15 Templeton Place Earl s Court Kensington and Chelsea London SW5 9NB United Kingdom,8.60282685512,1.41742348643,-1.16694147892,566,K K Hotel George,London,51.4918878,-0.1949706
1 2 Serjeant s Inn Fleet Street City of London London EC4Y 1LL United Kingdom,9.29855212355,0.92421416061,-2.20599086479,1036,Apex Temple Court Hotel,London,51.5137335,-0.1087512
1 3 Queens Garden Westminster Borough London W2 3BA United Kingdom,7.71146892655,1.87601522254,-0.6729769811,1770,The Park Grand London Paddington,London,51.5142184,-0.1809032
1 3 Rue d Argentine 16th arr 75116 Paris France,8.84857142857,1.05895937504,-1.31681243275,35,Monhotel Lounge SPA,Paris,48.8743481,2.2897334
1 5 Passage Ruelle 18th arr 75018 Paris France,5.85263157895,2.26724708771,0.0702058713885,19,Kube Hotel Ice Bar,Paris,48.88657,2.3588332
1 8 Russell Square Camden London WC1B 5BE United Kingdom,8.02933333333,1.63193073997,-0.803740032553,1425,The Principal London,London,51.5226217,-0.1251602
1 Addington Street Lambeth London SE1 7RY United Kingdom,8.3697569757,1.6165771797,-1.0985608706,2222,Park Plaza County Hall London,London,51.5014001,-0.1160092
1 Aldwych Westminster Borough London WC2B 4BZ United Kingdom,9.14485294118,1.024935037,-1.84624387125,136,One Aldwych,London,51.5117832,-0.1194172
1 Avenue Carnot 17th arr 75017 Paris France,9.14251968504,1.1208358336,-1.87451865211,127,Splendid Etoile,Paris,48.874707,2.2936761
1 Bis Rue De Vaugirard 6th arr 75006 Paris France,8.32811059908,1.51376175615,-1.12719012911,217,Hotel Trianon Rive Gauche,Paris,48.8487675,2.3410376
1 Hamilton Place Park Lane Westminster Borough London W1J 7QY United Kingdom,8.2925,1.66708988337,-1.01877175607,160,InterContinental London Park Lane,London,51.5038632,-0.1504132
1 Impasse Marteau 18th arr 75018 Paris France,7.02944444444,1.87761578349,-0.410007645826,180,Novotel Suites Paris Nord 18 me,Paris,48.9015941,2.3597783
1 Inverness Terrace Westminster Borough London W2 3JP United Kingdom,7.61561866126,1.8642933219,-0.625374666719,2958,Grand Royale London Hyde Park,London,51.5109945,-0.1863417
1 Kensington Court Kensington and Chelsea London W8 5DL United Kingdom,9.57209302326,0.693609682202,-2.01307317717,86,Milestone Hotel Kensington,London,51.5020425,-0.1866541
1 Kings Cross Road Islington London WC1X 9HX United Kingdom,7.95829195631,1.69347603927,-0.736083429522,1007,Crowne Plaza London Kings Cross,London,51.5263854,-0.1136042
1 Place De La Sorbonne 5th arr 75005 Paris France,8.961328125,1.22061885371,-1.64450884273,256,Select Hotel,Paris,48.8483053,2.3425596
1 Place Vend me 1st arr 75001 Paris France,8.38539325843,1.87177301471,-1.51951097554,89,H tel De Vend me,Paris,48.8668564,2.3286339
1 Rue De Libourne 12th arr 75012 Paris France,8.75848214286,1.42262922751,-1.55814283329,224,Pullman Paris Centre Bercy,Paris,48.8315204,2.3870797
1 Rue Du G n ral Blaise 11th arr 75011 Paris France,8.14134078212,1.62883786761,-1.26405467886,179,Gardette Park Hotel,Paris,48.8610265,2.3788974
1 Rue Sainte Opportune 1st arr 75001 Paris France,7.82037037037,1.77457428141,-0.661796959105,108,H tel des Ducs D Anjou,Paris,48.8598229,2.347111
1 Rue Scribe 9th arr 75009 Paris France,8.77777777778,1.30582316159,-1.4849984999,135,Hotel Scribe Paris Opera by Sofitel,Paris,48.8704175,2.3296832
1 Shortlands Hammersmith and Fulham London W6 8DR United Kingdom,8.24224473889,1.67600537624,-0.923908365874,1283,Novotel London West,London,51.4919588,-0.2200956
1 Suffolk Place Westminster Borough London SW1Y 4HX United Kingdom,9.59090909091,0.737789491206,-3.65904373829,121,Haymarket Hotel,London,51.5084595,-0.1311382
1 Waterview Drive Greenwich London SE10 0TW United Kingdom,9.45119560956,0.903538545548,-2.95148288155,2551,Intercontinental London The O2,London,51.5024348,-0.0002497
1 rue Geoffroy Marie 9th arr 75009 Paris France,8.48902439024,1.32180255689,-0.754979189622,82,Hotel Panache,Paris,48.8732543,2.343239
10 12 rue Cognacq Jay 7th arr 75007 Paris France,8.5775147929,1.61443369884,-1.28430670154,169,H tel Juliana Paris,Paris,48.8619373,2.3040298
10 12 rue de Charonne 11th arr 75011 Paris France,9.14210526316,0.971950259273,-1.81264678711,171,Hotel L Antoine,Paris,48.8524215,2.3743832
10 Avenue D I na 16th arr 75016 Paris France,9.10217391304,1.26077385944,-3.75834005871,46,Shangri La Hotel Paris,Paris,48.8637135,2.2934759
10 Avenue Emile Zola 15th arr 75015 Paris France,7.51714285714,1.90018850541,-0.733767425287,70,Mercure Paris Tour Eiffel Pont Mirabeau,Paris,48.8460269,2.2788281
10 Beaufort Gardens Kensington and Chelsea London SW3 1PT United Kingdom,9.10057803468,1.18495888997,-2.08816021423,173,Knightsbridge Hotel,London,51.4980052,-0.1643238
10 Berners Street Westminster Borough London W1T 3NP United Kingdom,9.12907801418,0.999609852971,-1.47764744728,141,The London EDITION,London,51.5167472,-0.135965
10 Bina Gardens South Kensington Kensington and Chelsea London SW5 0LA United Kingdom,7.698125,1.91316103387,-0.784867836891,160,The Cranley Hotel,London,51.4916378,-0.1832833
10 Bis rue du D barcad re 17th arr 75017 Paris France,9.34489795918,1.02531727295,-2.41596921317,49,Hotel Le 10 BIS,Paris,48.8780363,2.2864907
10 Carlisle Street Westminster Borough London W1D 3BR United Kingdom,9.15580448065,1.03644895838,-1.9349021411,491,The Nadler Soho,London,51.5147387,-0.1341108
10 Godliman Street City of London London EC4V 5AJ United Kingdom,8.49150779896,1.56492805141,-1.20663860837,1154,Grange St Paul s Hotel,London,51.5127625,-0.0997157
10 Harrington Road Kensington and Chelsea London SW7 3ER United Kingdom,9.18534031414,1.075396412,-2.317607093,382,The Ampersand Hotel,London,51.4943077,-0.1755579
10 Monmouth Street Camden London WC2H 9HB United Kingdom,9.58783783784,0.668253233664,-2.83508302413,74,Covent Garden Hotel,London,51.5145986,-0.1270336
10 Palace Place Westminster Borough London SW1E 5BW United Kingdom,9.31214642263,0.921919493154,-2.21647841077,601,The Nadler Victoria,London,51.4990259,-0.1427453
10 Pepys Street City of London London EC3N 2NR United Kingdom,8.72706185567,1.44406998273,-1.3267627494,388,Novotel London Tower Bridge,London,51.5106538,-0.0773676
10 Place De La R publique 11th arr 75011 Paris France,8.00471698113,1.60011149348,-0.955511410838,212,Crowne Plaza Paris R publique,Paris,48.8673199,2.3656296
10 Place De Mexico 16th arr 75016 Paris France,8.34242424242,1.48262351734,-0.944339513988,66,Le Metropolitan a Tribute Portfolio Hotel,Paris,48.8656973,2.2829776
10 Rue Gabriel Laumain 10th arr 75010 Paris France,8.08823529412,2.22938566152,-1.14108861133,34,Windsor Opera,Paris,48.8734851,2.3485111
10 Rue Kepler 16th arr 75016 Paris France,9.33052631579,0.874225941414,-1.77356442806,95,H tel Keppler,Paris,48.8699103,2.2973386
10 Rue de la Tour d Auvergne 9th arr 75009 Paris France,8.476,1.48696559028,-1.27011458381,25,Hotel Tour d Auvergne Opera,Paris,48.8789432,2.3448623
10 Wardour Street Leicester Square Westminster Borough London W1D 6QF United Kingdom,8.31240601504,1.80783312403,-1.29988035845,266,W London Leicester Square,London,51.510843,-0.1314287
10 West Temple Sheen London SW14 7RT United Kingdom,8.27037037037,1.43885258327,-0.83616022182,162,The Victoria,London,51.4611219,-0.2756216
10 avenue Carnot 17th arr 75017 Paris France,7.7523255814,1.90767655072,-0.874731512683,86,Belfast,Paris,48.8756435,2.2938788
10 rue Chateaubriand 8th arr 75008 Paris France,7.91379310345,1.890903816,-0.555903946199,29,Atala Champs Elys es,Paris,48.8735418,2.302442
10 rue Gager Gabillot 15th arr 75015 Paris France,6.32972972973,2.25004504459,-0.0872275995349,37,Holiday Inn Paris Montparnasse Pasteur,Paris,48.8376887,2.3063102
10 rue Lamartine 9th arr 75009 Paris France,8.72654867257,1.21508507191,-1.07506555504,113,Les Plumes Hotel,Paris,48.8766269,2.3432886
10 rue Saint Hyacinthe 1st arr 75001 Paris France,8.22307692308,1.67259458614,-0.857578091026,91,Hotel des Tuileries Relais du Silence,Paris,48.8661705,2.331561
10 rue Saint Philippe du Roule 8th arr 75008 Paris France,9.12195121951,1.225150471,-1.71755474068,82,Bradford Elys es Astotel,Paris,48.8729676,2.3081178
10 rue d Ormesson 4th arr 75004 Paris France,9.18157894737,1.16272215383,-1.83936419645,76,H tel de Jos phine BONAPARTE,Paris,48.8555319,2.3621212
10 rue de Bruxelles 9th arr 75009 Paris France,9.34835164835,1.11318987473,-2.36870487536,91,Maison Souquet,Paris,48.88366,2.3313845
10 rue de Vaugirard 6th arr 75006 Paris France,8.31833333333,1.68672440419,-1.24196044393,120,Le Senat,Paris,48.8491427,2.3397118
100 110 Euston Road Camden London NW1 2AJ United Kingdom,8.8998389694,1.31493619084,-1.62666500664,1242,Pullman London St Pancras,London,51.5286766,-0.1283489
100 Cromwell Road Kensington and Chelsea London SW7 4ER United Kingdom,8.64360655738,1.41382975691,-1.4197208698,305,Crowne Plaza London Kensington,London,51.495179,-0.183827
100 Queen s Gate Kensington and Chelsea London SW7 5AG United Kingdom,7.96937561943,1.66676895717,-0.781393174879,1009,Doubletree by Hilton London Kensington,London,51.4925138,-0.1787917
100 Shoreditch High Street Hackney London E1 6JQ United Kingdom,8.68307392996,1.3752495738,-1.22620543198,514,Ace Hotel London Shoreditch,London,51.5254162,-0.0772849
100 Vauxhall Walk Lambeth London SE11 5AL United Kingdom,9.31885245902,0.88120119732,-2.89959710332,244,Staybridge Suites London Vauxhall,London,51.4891226,-0.1205639
101 Buckingham Palace Road Westminster Borough London SW1W 0SJ United Kingdom,8.34897689769,1.63931348081,-1.04053845052,1515,The Grosvenor,London,51.4956657,-0.1452793
101 Knightsbridge Westminster Borough London SW1X 7RN United Kingdom,8.03454545455,1.79965712284,-1.18687648057,275,The Park Tower Knightsbridge a Luxury Collection Hotel,London,51.5014191,-0.1625805
102 Avenue Victor Hugo 16th arr 75016 Paris France,8.00666666667,1.99766530397,-1.82945972041,15,Melia Paris Champs Elys es,Paris,48.8688962,2.2827459
102 Avenue de Villiers 17th arr 75017 Paris France,8.825,1.23988893108,-1.6068967005,172,Amp re,Paris,48.8848583,2.2997023
102 Bd De Grenelle 15th arr 75015 Paris France,8.73738317757,1.66835954793,-1.70993269353,428,Le Parisis Paris Tour Eiffel,Paris,48.8494851,2.2955063
104 Bayswater Rd Westminster Borough London W2 3HL United Kingdom,8.25266821346,1.54274325524,-1.04475659069,862,Thistle Kensington Gardens,London,51.5108439,-0.1839074
108 Baker Street Westminster Borough London W1U 6LJ United Kingdom,8.09256756757,1.58860541662,-0.773851530748,592,Park Plaza Sherlock Holmes London,London,51.5209191,-0.1566567
108 Rue Saint Lazare 8th arr 75008 Paris France,8.27155963303,1.70011392555,-1.04659672445,109,Hilton Paris Opera,Paris,48.8756604,2.3252075
109 113 Queen s Gate Kensington and Chelsea London SW7 5LR United Kingdom,8.72972972973,1.44667845121,-1.29952268209,333,The Kensington Hotel,London,51.4925478,-0.1780611
10a Chestnut Plaza Westfield Stratford City Olympic Park Newham London E20 1GL United Kingdom,8.67937625755,1.46540062997,-1.500286235,994,Holiday Inn London Stratford City,London,51.5426054,-0.0072708
10b Chestnut Plaza Westfield Stratford City Olympic Park Newham London E20 1GL United Kingdom,9.20469387755,1.06854946697,-2.10056848421,490,Staybridge Suites London Stratford,London,51.5426351,-0.0073272
11 12 Poplar Mews Shepherd s Bush Hammersmith and Fulham London W12 7JS United Kingdom,8.04048964218,1.64535909523,-0.826773705111,531,Shepherd s Bush Boutique Hotel,London,51.5054544,-0.2262216
11 13 Bayley Street Bedford Square Camden London WC1B 3HD United Kingdom,7.96349892009,1.55668724442,-0.724222064618,463,My Bloomsbury,London,51.5188555,-0.1319172
11 15 Rue De Lyon 12th arr 75012 Paris France,8.27493670886,1.49306508014,-1.00219820389,395,Holiday Inn Paris Gare de Lyon Bastille,Paris,48.8468064,2.3714789
11 Bis Rue Jules Chaplain 6th arr 75006 Paris France,8.94511278195,1.09416262194,-1.70106432224,133,H tel Chaplain Paris Rive Gauche,Paris,48.8427564,2.3305636
11 Bis rue Mazagran 10th arr 75010 Paris France,8.075,2.02577863296,-1.06375989495,44,H tel Regina Op ra Grands Boulevards,Paris,48.8708508,2.3515882
11 Cadogan Gardens Sloane Square Kensington and Chelsea London SW3 2RJ United Kingdom,8.83797468354,1.38782731699,-1.40343237088,158,11 Cadogan Gardens,London,51.4936161,-0.1592347
11 Knightsbridge Westminster Borough London SW1X 7LY United Kingdom,9.09480519481,1.42956527289,-2.48240474145,77,The Wellesley Knightsbridge a Luxury Collection Hotel London,London,51.502485,-0.1539265
11 Rue Du Temple 4th arr 75004 Paris France,8.68461538462,1.29173542941,-1.06572134027,221,H tel Duo,Paris,48.8581186,2.3529369
11 Rue d Astorg 8th arr 75008 Paris France,7.73333333333,2.22586898842,-0.971941323439,24,Hotel Astor Saint Honor ,Paris,48.8728324,2.3193886
11 Rue de l Arcade 8th arr 75008 Paris France,7.89652173913,1.81184845203,-0.69167161067,115,Op ra Marigny,Paris,48.871723,2.3235377
11 Thurloe Place Knightsbridge Kensington and Chelsea London SW7 2RS United Kingdom,8.5941011236,1.45742930374,-1.33323463056,712,The Rembrandt,London,51.4959227,-0.1702917
11 rue Paul Baudry 8th arr 75008 Paris France,8.5875,1.55797800195,-1.53502630803,56,H tel Le Marianne,Paris,48.8725794,2.3075779
11 rue de Tr vise 9th arr 75009 Paris France,8.23433476395,1.61899463521,-1.06984801598,233,H tel Diva Opera,Paris,48.8732706,2.3450746
11 rue du 8 Mai 1945 10th arr 75010 Paris France,8.53055555556,1.32193188643,-0.792133299233,72,Le Marcel,Paris,48.8761376,2.3572681
110 rue Blomet 15th arr 75015 Paris France,8.77142857143,1.26389584706,-1.27902753758,70,Hotel Eden,Paris,48.8405612,2.2991035
111 Cromwell Road Kensington and Chelsea London SW7 4DP United Kingdom,8.65606694561,1.39095019655,-1.54927407146,239,Ashburn Hotel,London,51.4945522,-0.1861213
111 Westminster Bridge Road Lambeth London SE1 7JD United Kingdom,8.35476190476,1.78706225658,-1.28805722258,84,Marlin Waterloo,London,51.4990953,-0.1132136
111 avenue de la Bourdonnais 7th arr 75007 Paris France,8.76022099448,1.43077297583,-1.59125889874,362,H tel de la Bourdonnais,Paris,48.8550466,2.304583
112 boulevard de S bastopol 3rd arr 75003 Paris France,8.29784482759,1.6456803254,-1.28794938367,232,Best Western Premier Marais Grands Boulevards,Paris,48.8687425,2.3541761
113 Lambeth Rd Lambeth London SE1 7LS United Kingdom,8.0118466899,1.75158242267,-0.902248738997,287,Novotel London Waterloo,London,51.4948465,-0.1187481
116 Piccadilly Westminster Borough London W1J 7BJ United Kingdom,7.97830687831,1.89619027094,-0.847718605566,189,The Athenaeum,London,51.504716,-0.1475618
117 129 Cromwell Road Kensington and Chelsea London SW7 4DS United Kingdom,7.68167330677,1.75523817948,-0.645309461664,502,Park International Hotel,London,51.4945144,-0.1866172
117 Poplar High Street Tower Hamlets London E14 0AE United Kingdom,9.5175,0.655113026067,-1.59970881931,40,Lansbury Heritage Hotel,London,51.5090985,-0.0157302
117 Rue Lauriston 16th arr 75116 Paris France,8.04852941176,2.08609416131,-0.968864747543,68,Le Dokhan s a Tribute Portfolio Hotel,Paris,48.8663359,2.2867935
11bis Rue Godot de Mauroy 9th arr 75009 Paris France,8.7632183908,1.29229514076,-1.24291974182,87,Le Relais Madeleine,Paris,48.870961,2.3267678
12 14 Rue Joseph De Maistre 18th arr 75018 Paris France,9.27661691542,0.986306492685,-2.00416466144,201,Terrass H tel Montmartre by MH,Paris,48.8865626,2.3329648
12 Boulevard Haussmann 9th arr 75009 Paris France,7.9224,1.65035988255,-0.731003447134,125,Millennium Hotel Paris Opera,Paris,48.8724588,2.3378004
12 Folgate Street City of London London E1 6BX United Kingdom,9.41101449275,0.885375601756,-2.39319883722,345,Batty Langley s,London,51.5208575,-0.0779503
12 Lancaster Gate Lancaster Gate Westminster Borough London W2 3LG United Kingdom,7.97900485437,1.55784643699,-0.768223320935,824,Best Western Mornington Hotel Hyde Park,London,51.5119933,-0.1782794
12 Osborn Street Aldgate East Tower Hamlets London E1 6TE United Kingdom,8.88576923077,1.27118355212,-1.76826234421,780,Arbor City,London,51.5166755,-0.0697897
12 Rue Jean Goujon 8th arr 75008 Paris France,8.66891891892,1.70654868208,-1.55917590977,74,H tel San R gis,Paris,48.8665788,2.3084447
12 Rue de Louvois 2nd arr 75002 Paris France,9.20833333333,1.39311688235,-2.53609471367,72,H tel Square Louvois,Paris,48.8684165,2.336869
12 Upper Woburn Place Camden London WC1H 0HX United Kingdom,7.84583333333,1.53271438484,-0.633722432026,768,Ambassadors Bloomsbury,London,51.5266618,-0.1296571
12 boulevard Malesherbes 8th arr 75008 Paris France,8.60854092527,1.31952304936,-1.21460782868,281,Waldorf Madeleine,Paris,48.8715828,2.3224853
12 rue Saint Didier 16th arr 75016 Paris France,8.404,1.37599497171,-1.54203810134,75,Garden Elys e,Paris,48.8663444,2.2881979
12 rue Saint Roch 1st arr 75001 Paris France,8.61515151515,1.30705098768,-1.236535036,66,Hotel Louvre Montana,Paris,48.8644627,2.3318473
12 rue de Marignan 8th arr 75008 Paris France,8.68086419753,1.48848724535,-1.63376258121,162,Hotel Marignan Champs Elys es,Paris,48.8685093,2.3067895
12 rue de Parme 9th arr 75009 Paris France,9.11578947368,1.00823973757,-1.59983303923,76,Le Grey Hotel,Paris,48.881407,2.3274204
12 rue de la Montagne Sainte Genevi ve 5th arr 75005 Paris France,8.87083333333,1.38243999902,-1.50843310505,96,Hotel La Lanterne,Paris,48.8489839,2.348383
12 rue des Saussaies 8th arr 75008 Paris France,9.0625,0.99658069263,-1.51375684794,40,Le Pavillon des Lettres,Paris,48.8713699,2.3181191
123 Rue Du Faubourg Saint Honor 8th arr 75008 Paris France,9.22830188679,0.845435108389,-1.42229578854,53,Le 123 Elysees Astotel,Paris,48.8730823,2.309659
123 boulevard S bastopol 2nd arr 75002 Paris France,9.50692307692,0.704601538013,-1.91895268167,130,Le 123 S bastopol Astotel,Paris,48.8675886,2.3531018
124 Clerkenwell Rd Camden London EC1R 5DJ United Kingdom,7.80846153846,1.82985722387,-0.911912634931,130,The Bryson Hotel,London,51.5220869,-0.1082443
128 King Henry s Road Camden London NW3 3ST United Kingdom,8.22925531915,1.66674067509,-1.01592696089,752,London Marriott Hotel Regents Park,London,51.5421476,-0.1703073
128 avenue de Wagram 17th arr 75017 Paris France,8.0,1.47838223579,-0.365379778922,58,Best Western Mercedes Arc de Triomphe,Paris,48.8848292,2.3035189
129 Bayswater Road London W2 4RJ United Kingdom,7.64401544402,1.87395265212,-0.730335688558,259,Hilton London Hyde Park,London,51.51046,-0.1875844
13 15 Gower Street Camden London WC1E 6HE United Kingdom,8.4,1.47886596229,-1.07319059833,248,Staunton Hotel B B,London,51.520378,-0.1303414
13 Boulevard Du Temple 3rd arr 75003 Paris France,7.86148648649,1.66723216183,-0.668918254949,148,1K Hotel,Paris,48.8639318,2.3658744
13 Rue De La Paix 2nd arr 75002 Paris France,8.58817891374,1.44462560803,-1.07088010244,313,H tel Westminster,Paris,48.8693409,2.3310263
13 Rue Fran ois Ory 92120 Paris France,8.18,1.62808681177,-1.18521184045,10,Mercure Paris Porte d Orleans,Paris,48.8178079,2.3293636
13 Rue Jules Cesar 12th arr 75012 Paris France,8.44066666667,1.58813117418,-1.73587273889,150,Le Marceau Bastille,Paris,48.8490691,2.3697484
13 rue Geoffroy Marie 9th arr 75009 Paris France,8.26857142857,1.50699768308,-0.930797163324,35,Maxim Op ra,Paris,48.8738557,2.3444232
13 rue Saint Sulpice 6th arr 75006 Paris France,8.78383233533,1.42796161761,-1.8389737722,167,Hotel Odeon Saint Germain,Paris,48.8513515,2.3375084
13 rue des Beaux Arts 6th arr 75006 Paris France,8.92405063291,1.39101652462,-1.60556280258,79,L H tel,Paris,48.8562272,2.3351758
130 134 Southampton Row Camden London WC1B 5AF United Kingdom,8.44534883721,1.44699584184,-1.02426844507,602,Mercure London Bloomsbury Hotel,London,51.5210085,-0.1230966
130 135 Minories City of London London EC3N 1NU United Kingdom,9.03529411765,1.15664311105,-1.59952746305,969,The Chamberlain,London,51.5122457,-0.0757326
130 Tottenham Court Road Camden London W1T 5AY United Kingdom,8.37784342688,1.55288523464,-1.11111551994,1354,Radisson Blu Edwardian Grafton,London,51.5241386,-0.1380807
132 Boulevard Haussmann 8th arr 75008 Paris France,9.15609756098,1.2686703237,-1.68161253479,41,La Villa Haussmann,Paris,48.8753446,2.3167161
134 George Street Westminster Borough London W1H 5DN United Kingdom,8.31229166667,1.63868772232,-1.05336404001,480,London Marriott Hotel Marble Arch,London,51.5163841,-0.1635764
14 15 Langham Place Westminster Borough London W1B 2QS United Kingdom,7.40686813187,1.70810256922,-0.486024255415,728,Saint Georges Hotel,London,51.517839,-0.1424476
14 16 Craven Hill Lancaster Gate Westminster Borough London W2 3DU United Kingdom,8.85683453237,1.24381281635,-1.51203017026,556,Park Grand London Lancaster Gate,London,51.5132069,-0.1807816
14 Henrietta Street Westminster Borough London WC2E 8QH United Kingdom,9.18518518519,1.31403773032,-2.44108474893,27,The Henrietta Hotel,London,51.5109079,-0.1238221
14 Rue Beaujon 8th arr 75008 Paris France,8.71340206186,1.47121808938,-1.36691687672,194,Sofitel Paris Arc De Triomphe,Paris,48.8751845,2.3013214
14 Rue St Simon 7th arr 75007 Paris France,9.20608695652,0.943703692394,-1.64185774816,115,H tel Duc De St Simon,Paris,48.8560685,2.3236846
14 Rue Stanislas 6th arr 75006 Paris France,9.40317460317,0.734839954918,-1.79232293895,63,Hotel Le Six,Paris,48.8438352,2.3280708
14 Rue de la Sorbonne 5th arr 75005 Paris France,8.625,1.2107639601,-1.04572999723,80,Hotel Mercure La Sorbonne Saint Germain des Pr s,Paris,48.8493499,2.3430569
14 Rue du Chevalier de Saint George 1st arr 75001 Paris France,9.30289256198,0.887226026221,-1.94098813949,242,Hotel Op ra Richepanse,Paris,48.8686931,2.325211
14 rue de la Tremoille 8th arr 75008 Paris France,8.52894736842,1.43181151362,-0.645244137593,76,La Tremoille Paris,Paris,48.8668589,2.3028215
140 Gloucester Road Kensington and Chelsea London SW7 4QH United Kingdom,8.69410609037,1.44882709031,-1.43722065673,1018,The Bailey s Hotel London,London,51.4938733,-0.1824963
140 Park Lane Westminster Borough London W1K 7AA United Kingdom,8.62051282051,1.57086781991,-2.00553451916,78,London Marriott Hotel Park Lane,London,51.5131428,-0.1576714
141 rue St Honor 1st arr 75001 Paris France,8.34048780488,1.67892640653,-1.02406582833,205,Best Western Premier Louvre Saint Honor ,Paris,48.861711,2.340674
142 Minories City of London London EC3N 1LS United Kingdom,9.33815028902,0.929385672405,-2.12915702303,346,Hotel Indigo London Tower Hill,London,51.5128032,-0.07586
142 To 144 Warwick Way Victoria Westminster Borough London SW1V 4JE United Kingdom,8.95052631579,1.19759277029,-1.74813601788,95,Windermere Hotel,London,51.4903724,-0.1459218
143 Avenue De Malakoff 16th arr 75016 Paris France,8.93246753247,1.15683797237,-1.39624809826,77,La Villa Maillot,Paris,48.875551,2.2835191
143 Boulevard Saint Germain 6th arr 75006 Paris France,8.72772277228,1.22344749065,-1.34226185653,101,H tel Madison by MH,Paris,48.8531641,2.3344097
144 Praed St Paddington Westminster Borough London W2 1HU United Kingdom,7.55220820189,1.76274501777,-0.627594092367,634,Mercure London Paddington Hotel,London,51.5161139,-0.1749521
146 Praed Street Westminster Borough London W2 1EE United Kingdom,8.09596912521,1.64583257167,-0.927458599963,1166,Hilton London Paddington,London,51.515632,-0.175737
147 Cromwell Road Kensington and Chelsea London SW5 0TH United Kingdom,7.98518518519,1.76725312537,-0.831107803998,189,London Marriott Hotel Kensington,London,51.4944849,-0.1884174
15 16 Prince Of Wales Terrace Kensington and Chelsea London W8 5PQ United Kingdom,8.30334572491,1.43012235784,-0.859702635309,269,Kensington House Hotel,London,51.5012329,-0.1859937
15 17 Charlotte Street Hotel Westminster Borough London W1T 1RJ United Kingdom,9.48865248227,0.869079332116,-2.69239284547,141,Charlotte Street Hotel,London,51.5184158,-0.1348509
15 Beeston Place Westminster Borough London SW1W 0JW United Kingdom,9.43823529412,0.98050745779,-3.00174418815,102,The Goring,London,51.4975621,-0.145551
15 Boulevard Romain Rolland 14th arr 75014 Paris France,7.95185185185,1.91177935047,-1.12360134874,27,Novotel Paris 14 Porte d Orl ans,Paris,48.8196885,2.3263505
15 Cromwell Place Kensington and Chelsea London SW7 2LA United Kingdom,8.55667870036,1.55726458477,-1.43931260997,277,The Pelham Starhotels Collezione,London,51.4943935,-0.1750169
15 Montague St Bloomsbury Camden London WC1B 5BJ United Kingdom,9.37560386473,0.928697177784,-2.50736634953,414,The Montague On The Gardens,London,51.520181,-0.1256957
15 Place Vend me 1st arr 75001 Paris France,9.725,0.698477179563,-4.66359011976,28,Ritz Paris,Paris,48.8679466,2.3289593
15 Quai Saint Michel 5th arr 75005 Paris France,9.05416666667,1.00672912004,-0.954410130652,72,Hotel Les Rives de Notre Dame,Paris,48.8532269,2.3457159
15 Rue Boissy d Anglas 8th arr 75008 Paris France,8.54306569343,1.61029754377,-1.21588517531,137,Sofitel Paris Le Faubourg,Paris,48.868414,2.3213247
15 Rue De La Grande Chaumi re 6th arr 75006 Paris France,8.896,1.23882103268,-1.68623734734,50,H tel des Academies et des Arts,Paris,48.8420669,2.3304091
15 Rue Des Pyramides 1st arr 75001 Paris France,8.95285714286,1.05015132499,-1.27127288152,70,Hotel Lumen Paris Louvre,Paris,48.8652582,2.3329632
15 Rue Dupleix 15th arr 75015 Paris France,8.77603305785,1.35179046659,-1.48276028379,121,Le Marquis Eiffel,Paris,48.8516619,2.2979395
15 Rue Jacob 6th arr 75006 Paris France,9.39638554217,0.917961613132,-2.77216428694,166,Mill sime H tel,Paris,48.8550236,2.3350786
15 Rue de Bassano 16th arr 75016 Paris France,8.131,1.69059758725,-0.974130926714,100,Bassano,Paris,48.8690596,2.2971078
15 Seymour Street Westminster Borough London W1H 7JW United Kingdom,8.15770114943,1.62636805309,-0.939523178811,435,The Leonard Hotel,London,51.5147071,-0.1578291
15 rue Edouard Manet 13th arr 75013 Paris France,9.14708171206,0.959207663102,-2.11025842288,257,COQ Hotel Paris,Paris,48.8328764,2.3572531
15 rue de Constantinople 8th arr 75008 Paris France,7.99010989011,1.7298718607,-0.702163772664,91,Best Western Premier Le Swann,Paris,48.8797331,2.3206003
150 Bayswater Road Kensington and Chelsea London W2 4RT United Kingdom,8.45439153439,1.47539289335,-1.22134523823,945,DoubleTree by Hilton London Hyde Park,London,51.5100362,-0.190657
150 Piccadilly Westminster Borough London W1J 9BR United Kingdom,9.41699507389,1.06582459121,-2.91486691866,406,The Ritz London,London,51.5069446,-0.1415776
151 157 City Road Shoreditch Islington London EC1V 1JS United Kingdom,9.08635730858,1.21461979884,-1.89284284503,2155,M by Montcalm Shoreditch London Tech City,London,51.5278465,-0.0889473
151 bis Rue de Rennes 6th arr 75006 Paris France,9.04358974359,1.00680667144,-0.832790926765,78,Legend Saint Germain by Elegancia,Paris,48.8453774,2.3256427
152 Cricklewood Broadway Cricklewood London NW2 3ED United Kingdom,7.99508804449,1.7087312522,-0.830657198651,1079,Clayton Crown Hotel London,London,51.5561548,-0.2141824
153 Boulevard Saint Germain 6th arr 75006 Paris France,8.71144578313,1.4468110241,-1.66446849114,166,Au Manoir Saint Germain,Paris,48.853688,2.3322667
153 Hammersmith Road Hammersmith and Fulham London W14 0QL United Kingdom,8.96194225722,1.18654536446,-1.72799686689,381,St Paul s Hotel,London,51.4934752,-0.2153256
153 Rue De Vaugirard 15th arr 75015 Paris France,7.96914893617,1.72316873862,-0.887970557255,188,Best Western S vres Montparnasse,Paris,48.843707,2.3155631
16 22 Great Russell Street Camden London WC1B 3NN United Kingdom,9.06196660482,1.14605377184,-1.73668591871,539,The Bloomsbury Hotel,London,51.5171671,-0.1290534
16 Avenue de l Opera 1st arr 75001 Paris France,9.45575221239,1.02242167471,-3.12878448398,113,Nolinski Paris,Paris,48.8654874,2.3348924
16 London Street Paddington Westminster Borough London W2 1HL United Kingdom,8.71947565543,1.29524684353,-1.52496360493,267,Hotel Indigo London Paddington,London,51.5150534,-0.1739974
16 Sumner Place Kensington and Chelsea London SW7 3EG United Kingdom,9.04942528736,1.35619796552,-2.10783256594,87,Number Sixteen,London,51.4930905,-0.1755022
16 avenue de Tourville 7th arr 75007 Paris France,9.09714285714,1.24316507508,-1.99667316176,140,Le Tourville Eiffel,Paris,48.8542681,2.3078116
16 boulevard Haussmann 9th arr 75009 Paris France,7.64393939394,1.95417728413,-0.565805278834,66,Paris Marriott Opera Ambassador Hotel,Paris,48.8728351,2.3362507
16 rue d Edimbourg 8th arr 75008 Paris France,8.98269230769,1.42538990119,-2.12274977576,104,Idol Hotel,Paris,48.8795369,2.3202966
16 rue de Berri 8th arr 75008 Paris France,8.13818181818,1.70170491033,-0.97643371454,275,H tel California Champs Elys es,Paris,48.8726335,2.3048084
16 rue de S ze 9th arr 75009 Paris France,9.4,0.763403438639,-1.39055154079,80,Hotel de Seze,Paris,48.8705741,2.3264194
160 Cromwell Road Kensington Kensington and Chelsea London SW5 0TL United Kingdom,9.075,1.12643881626,-2.13842064523,296,Hotel Xenia Autograph Collection,London,51.4946905,-0.1910197
160 Rue La Fayette 10th arr 75010 Paris France,8.82303030303,1.28959474997,-1.83014701493,330,H tel Hor,Paris,48.8793427,2.3577745
163 Marsh Wall Docklands Tower Hamlets London E14 9SJ United Kingdom,6.82762223151,2.02507109108,-0.234612124755,4786,Britannia International Hotel Canary Wharf,London,51.5019097,-0.0232208
165 rue de Rome 17th arr 75017 Paris France,7.66930693069,2.12954185562,-1.0095792662,101,Best Western Op ra Batignolles,Paris,48.8870573,2.3143297
166 Boulevard Berthier 17th arr 75017 Paris France,8.71730769231,1.45130957319,-1.29970457322,104,H tel de Banville,Paris,48.8864673,2.2948911
167 rue de Rome 17th arr 75017 Paris France,5.86451612903,2.17926869778,-0.0549680809539,62,Villa Eugenie,Paris,48.8871283,2.314205
17 18 Upper Woburn Place Camden London WC1H 0HT United Kingdom,7.12085106383,1.98297425788,-0.294752977448,470,Hilton London Euston,London,51.5265189,-0.1303689
17 19 Egerton Terrace Knightsbridge Kensington and Chelsea London SW3 2BX United Kingdom,9.51973684211,0.910680293238,-3.5916237218,76,Egerton House,London,51.4968406,-0.1675498
17 25 Sloane Street Knightsbridge Kensington and Chelsea London SW1X 9NU United Kingdom,7.44836146971,1.87676882675,-0.404820335864,1007,Millennium Hotel London Knightsbridge,London,51.4999683,-0.1599927
17 Avenue Kl ber 16th arr 75016 Paris France,8.84615384615,1.34923665843,-1.35509392098,78,H tel Raphael,Paris,48.8713239,2.2937849
17 Boulevard Saint Jacques 14th arr 75014 Paris France,7.38695652174,1.77758996592,-0.739512645284,46,Paris Marriott Rive Gauche Hotel,Paris,48.8315962,2.3399796
17 Nottingham Place Westminster Borough London W1U 5LG United Kingdom,7.6392,1.67312225032,-0.762302843174,125,Hotel La Place,London,51.5215257,-0.1533039
17 Rue Du Cotentin 15th arr 75015 Paris France,7.91700404858,1.67505440149,-0.787394827081,247,Novotel Paris Centre Gare Montparnasse,Paris,48.838484,2.3150904
17 Rue de Caumartin 9th arr 75009 Paris France,7.69090909091,1.66816382972,-0.48358308382,22,Hotel Le Pera,Paris,48.871309,2.3277079
17 bis rue Am lie 7th arr 75007 Paris France,8.78026315789,1.45913396569,-1.27378568947,76,Le 7 Eiffel Hotel,Paris,48.8585193,2.3077243
17 rue Duhesme 18th arr 75018 Paris France,8.95762711864,1.31558344076,-1.8911177718,59,D clic Hotel,Paris,48.8908018,2.3380204
17 rue de Richelieu 1st arr 75001 Paris France,9.41428571429,0.761433004131,-1.5094140373,14,Drawing Hotel,Paris,48.8644382,2.3359148
17 rue de l Arcade 8th arr 75008 Paris France,8.59361702128,1.57434827223,-1.45584336839,376,H tel Bedford,Paris,48.8720593,2.3236802
17 rue g t le coeur 6th arr 75006 Paris France,8.91724137931,1.25643172901,-1.2379510011,29,Villa d Estr es,Paris,48.8535089,2.3425787
171 Knightsbridge Westminster Borough London SW7 1DW United Kingdom,9.52972972973,0.771673817413,-2.97269550961,37,Bulgari Hotel London,London,51.5015721,-0.1628511
173 185 Greenwich High Rd Greenwich London SE10 8JA United Kingdom,8.58511904762,1.39544729275,-1.10616088222,504,Novotel London Greenwich,London,51.4778583,-0.0137463
173 Gloucester Place Westminster Borough London NW1 6DX United Kingdom,7.66564705882,1.7221541603,-0.559045505154,850,Park Avenue Baker Street,London,51.5241452,-0.1609907
177 Boulevard Haussmann 8th arr 75008 Paris France,8.65523809524,1.57534983614,-1.76710066821,105,Hotel Plaza Elys es,Paris,48.8746128,2.3056956
177 rue du faubourg Saint Honor 8th arr 75008 Paris France,8.90285714286,1.42851840561,-2.02350076504,105,Hotel Champs Elys es Friedland by Happyculture,Paris,48.8750848,2.3048372
18 21 Charterhouse Square Islington London EC1M 6AH United Kingdom,8.69134993447,1.41653291459,-1.37084150196,763,Malmaison London,London,51.520943,-0.1004581
18 30 Lexham Gardens Kensington and Chelsea London W8 5JE United Kingdom,8.49829787234,1.52984458061,-1.30059149357,235,The Park City Grand Plaza Kensington Hotel,London,51.4954976,-0.1893691
18 Albert Embankment Lambeth London SE1 7TJ United Kingdom,8.22893401015,1.68585389089,-1.00831064807,2167,Park Plaza London Riverbank,London,51.4913737,-0.1214194
18 Avenue De Suffren Entr e au 22 rue Jean Rey 15th arr 75015 Paris France,8.60106382979,1.61042794215,-1.46118237757,846,Pullman Paris Tour Eiffel,Paris,48.8555664,2.2926243
18 Lodge Road Near Baker Street And Marylebone Westminster Borough London NW8 7JT United Kingdom,8.12782462057,1.58157192469,-0.86302903647,593,Danubius Hotel Regents Park,London,51.529257,-0.168358
18 Rue d Antin 2nd arr 75002 Paris France,8.71206030151,1.20124315926,-1.11553630713,199,H tel Horset Op ra Best Western Premier Collection,Paris,48.8691686,2.3337818
18 Rue du Cirque 8th arr 75008 Paris France,9.35,1.30281745971,-2.11804111147,16,Splendide Royal Paris,Paris,48.8709627,2.3154141
18 rue Bachaumont 2nd arr 75002 Paris France,8.97692307692,1.24816490607,-1.57998998367,156,Hotel Bachaumont,Paris,48.8663208,2.3450399
18 rue Clement Marrot 8th arr 75008 Paris France,8.83636363636,1.28887207378,-1.47416996582,88,Franklin Roosevelt,Paris,48.8678432,2.3033075
18 rue de Constantinople 8th arr 75008 Paris France,7.38076923077,1.99434640482,-0.697971640084,78,Best Western Paris Gare Saint Lazare,Paris,48.8803752,2.319591
181 Cromwell Road Kensington and Chelsea London SW5 0SF United Kingdom,8.58115942029,1.32429761404,-1.23256239144,552,The Rockwell,London,51.4948059,-0.1926525
181 Tooley Street Southwark London SE1 2JR United Kingdom,9.21290322581,1.02341182374,-1.73561634634,62,The LaLit London,London,51.5032524,-0.078179
185 Boulevard Brune 14th arr 75014 Paris France,8.26081081081,1.40876099916,-0.751111667883,74,Mercure Paris Alesia,Paris,48.8237487,2.324056
19 21 Gt Marlborough St Westminster Borough London W1F 7HL United Kingdom,7.86978085352,1.8000988741,-0.694386474413,867,Courthouse Hotel London,London,51.5143624,-0.1394483
19 21 Penywern Road Kensington and Chelsea London SW5 9TT United Kingdom,7.72896174863,1.6373990793,-0.671882181553,549,Best Western The Boltons Hotel London Kensington,London,51.4907493,-0.1934627
19 25 Granville Place Marble Arch Westminster Borough London W1H 6PA United Kingdom,7.87329842932,1.62696974001,-0.701615657049,573,Radisson Blu Edwardian Sussex,London,51.5144381,-0.1558337
19 Boulevard De La Tour Maubourg 7th arr 75007 Paris France,9.67192982456,0.538103278047,-2.27897807269,57,Le Narcisse Blanc Spa,Paris,48.8605125,2.3106533
19 Brent Street Brent Cross London NW4 2EU United Kingdom,8.39603960396,1.72446634018,-1.09852809482,101,The Pillar Hotel,London,51.583236,-0.216868
19 New Bridge Street City of London London EC4V 6DB United Kingdom,8.75934579439,1.35991629888,-1.50471740218,214,Crowne Plaza London The City,London,51.5122429,-0.1045036
19 Rue Copernic 16th arr 75016 Paris France,8.30833333333,1.23905134153,-0.152239230966,48,H tel Victor Hugo Paris Kl ber,Paris,48.8690198,2.2891278
19 Rue Cujas 5th arr 75005 Paris France,8.89870967742,1.3030925801,-1.60564082622,155,Grand Hotel Saint Michel,Paris,48.8478399,2.342254
19 Rue De Caumartin 9th arr 75009 Paris France,9.03186813187,1.33490566632,-2.51822260817,91,Hotel Maison Ath n e,Paris,48.8713421,2.3280723
19 Rue Des Pretres Saint Germain L Auxerrois 1st arr 75001 Paris France,8.97159090909,1.34120797016,-2.23874179436,88,Relais Du Louvre,Paris,48.8592264,2.340996
19 Rue Du Pont Neuf 1st arr 75001 Paris France,7.47394366197,1.93613197697,-0.559436771309,142,Best Western Ducs de Bourgogne,Paris,48.8603483,2.3440535
19 Rue Tronchet 8th arr 75008 Paris France,8.82127659574,1.23576514821,-1.33796180826,141,Best Western Premier Op ra Opal,Paris,48.8722588,2.3257608
19 Rue Vernet 8th arr 75008 Paris France,7.62058823529,2.00782322578,-0.824702945565,102,Amarante Champs Elys es,Paris,48.8717649,2.2983855
19 Rue du Commandant Ren Mouchotte 14th arr 75014 Paris France,7.90263157895,1.75196725856,-0.858759586075,266,Pullman Paris Montparnasse,Paris,48.8382943,2.3210421
19 avenue Kleber 16th arr 75116 Paris France,9.3275862069,1.48167675328,-2.84967403144,58,Hotel The Peninsula Paris,Paris,48.8710605,2.2933537
19 place du Panth on 5th arr 75005 Paris France,8.95,1.13683389479,-1.61270223322,70,H tel Les Dames du Panth on,Paris,48.845743,2.34493
190 Queen s Gate Kensington and Chelsea London SW7 5EX United Kingdom,8.56833013436,1.47780206285,-1.28249998298,521,The Gore Hotel Starhotels Collezione,London,51.5001979,-0.1795357
199 206 High Holborn Camden London WC1V 7BD United Kingdom,9.22529801325,1.03184494442,-1.95197954644,755,The Hoxton Holborn,London,51.5172398,-0.1220324
1a Lexham Gardens Kensington and Chelsea London W8 5JJ United Kingdom,7.4619047619,1.81047457365,-0.513885953164,441,Mercure London Kensington Hotel,London,51.4950098,-0.1906195
2 24 Kensington High St Kensington and Chelsea London W8 4PT United Kingdom,8.82219679634,1.3658279977,-1.49913177792,874,Royal Garden Hotel,London,51.5027022,-0.1882164
2 4 Boundary Street Hackney London E2 7DD United Kingdom,8.44166666667,1.97643312024,-1.40043872308,12,Boundary Rooms Suites,London,51.5244224,-0.0764614
2 4bis Cit Rougemont 9th arr 75009 Paris France,9.18426966292,1.27180069876,-2.73566503088,89,H tel Ad le Jules,Paris,48.8721062,2.3451384
2 5 Montague Street Bloomsbury Camden London WC1B 5BU United Kingdom,7.94857142857,1.59377462856,-0.606534473601,210,Grange White Hall Hotel,London,51.5203469,-0.1260893
2 8 Great Suffolk Street Southwark London SE1 0UG United Kingdom,9.2771556551,1.01260772851,-2.39475153889,893,Hilton London Bankside,London,51.5056956,-0.101525
2 8 Hanger Lane Ealing Common London W5 3HN United Kingdom,8.32897058824,1.55050435018,-1.09734857956,680,DoubleTree by Hilton London Ealing,London,51.511521,-0.290706
2 Bd Garibaldi 15th arr 75015 Paris France,8.2875,1.54618453611,-1.16054584532,72,First Hotel Paris Tour Eiffel,Paris,48.8475112,2.3022198
2 Bridge Place Victoria Westminster Borough London SW1V 1QA United Kingdom,8.44223894638,1.52497521554,-1.28249808645,1063,DoubleTree by Hilton London Victoria,London,51.49398,-0.143372
2 Caxton Street Westminster Borough London SW1H 0QW United Kingdom,8.87578125,1.24133000098,-1.23607978109,384,St Ermin s Hotel Autograph Collection,London,51.498905,-0.1339093
2 Montagu Place Westminster Borough London W1H 2ER United Kingdom,9.0045045045,1.22870126463,-2.31012919869,111,Montagu Place Hotel,London,51.5191009,-0.1592
2 Rue Boulard 14th arr 75014 Paris France,7.94230769231,1.74314862222,-0.749804632829,52,Villa Montparnasse,Paris,48.8349272,2.3295913
2 Rue De Parme 9th arr 75009 Paris France,9.36666666667,0.880011528251,-2.13694960621,93,Hotel Design Secret de Paris,Paris,48.8814056,2.3282568
2 Rue Duperr 9th arr 75009 Paris France,8.19868421053,1.83284794212,-1.13958683077,76,La Villa Royale,Paris,48.8821595,2.3367444
2 Rue Edouard VII 9th arr 75009 Paris France,8.99391304348,1.14503404964,-1.3995115788,115,Hotel Indigo Paris Opera,Paris,48.8704371,2.329236
2 Rue Hector Malot 12th arr 75012 Paris France,8.41168141593,1.53412882309,-1.15891308782,565,Novotel Paris Gare De Lyon,Paris,48.8453785,2.3753036
2 Rue Racine 6th arr 75006 Paris France,8.32926829268,1.62856354223,-1.32044739127,82,H tel Belloy Saint Germain By Happyculture,Paris,48.8503901,2.3422527
2 Rue Saint Sulpice 6th arr 75006 Paris France,8.78545454545,1.09382410764,-1.00302782432,55,Hotel Louis 2,Paris,48.8516148,2.3381293
2 Rue Scribe 9th arr 75009 Paris France,8.70933333333,1.51574938458,-1.72748140176,150,InterContinental Paris Le Grand,Paris,48.8708391,2.3303651
2 Rue d Artois 8th arr 75008 Paris France,8.57431693989,1.65673664672,-1.53155621901,183,H tel des Champs Elys es,Paris,48.8722884,2.3090359
2 Rue du Colonel Pierre Avia 15th arr 75015 Paris France,9.08372093023,1.32681685544,-2.14235339574,43,Okko Hotels Paris Porte De Versailles,Paris,48.8327729,2.2787597
2 Spring Gardens Trafalgar Square Westminster Borough London SW1A 2TS United Kingdom,8.07348066298,1.56205473599,-0.769825479932,362,The Trafalgar Hilton,London,51.507374,-0.129135
2 Stanhope Row Park Lane Westminster Borough London W1J 7BS United Kingdom,6.897256386,1.91191490444,-0.237896141318,1057,Park Lane Mews Hotel,London,51.5059334,-0.1489418
2 Sylvester Path Hackney London E8 1EN United Kingdom,7.83285714286,1.55745793884,-0.426521886586,140,Old Ship Inn Hackney,London,51.5458476,-0.0554113
2 The Avenue Ealing London W13 8PH United Kingdom,8.76470588235,1.40286606007,-1.55335435246,391,The Drayton Court Hotel,London,51.5141842,-0.3192925
2 Wallenberg Place Westminster Borough London W1H 7TN United Kingdom,8.97403210576,1.36566590628,-1.82259156365,1059,The Montcalm Marble Arch,London,51.5150522,-0.159239
2 Warrington Crescent Westminster Borough London W9 1ER United Kingdom,7.66865671642,1.65799960391,-0.554736717697,201,The Colonnade,London,51.5243286,-0.1846623
2 Whitehall Court Westminster Borough London SW1A 2EJ United Kingdom,8.9226899384,1.35574926375,-1.74140837997,974,The Royal Horseguards,London,51.5054185,-0.1241499
2 avenue la Porte Molitor 16th arr 75016 Paris France,8.67671232877,1.57528838171,-1.58126589294,73,Molitor Paris MGallery by Sofitel,Paris,48.8448902,2.252833
2 place Louis Armand 12th arr 75012 Paris France,7.86812652068,1.68142829632,-0.854857697151,411,Mercure Paris Gare De Lyon TGV,Paris,48.8442949,2.3730938
2 place des Pyramides 1st arr 75001 Paris France,9.16209677419,1.11478131069,-1.86600225489,372,H tel Regina,Paris,48.8637503,2.3320406
2 rue Geoffroy Marie 9th arr 75009 Paris France,8.390625,1.57393761162,-1.46160955334,96,Villa Opera Drouot,Paris,48.8732231,2.3436097
2 rue de Gramont 2nd arr 75002 Paris France,9.14226804124,1.03419000627,-1.35535719441,97,Lyric H tel Paris,Paris,48.8690126,2.3368708
2 rue des Guillemites 4th arr 75004 Paris France,9.48260869565,0.803205042266,-2.27536003568,23,Hotel Dupond Smith,Paris,48.857898,2.3571978
20 28 Bolsover Street Westminster Borough London W1W 5NB United Kingdom,7.95846153846,1.56727612631,-0.674741484768,455,Grange Fitzrovia Hotel,London,51.521759,-0.1425381
20 Chesham Place Kensington and Chelsea London SW1X 8HQ United Kingdom,9.20127659574,1.15008289746,-2.03515644955,235,The Hari London,London,51.4973203,-0.1562558
20 Lavington Street Southwark London SE1 0NZ United Kingdom,9.11226104153,1.07936141846,-1.92373824994,1517,citizenM London Bankside,London,51.5051507,-0.1004724
20 Mercer Street Covent Garden Camden London WC2H 9HD United Kingdom,8.72777053455,1.43149873424,-1.60943991294,767,Radisson Blu Edwardian Mercer Street,London,51.5139275,-0.1271506
20 Nevern Square Kensington and Chelsea London SW5 9PD United Kingdom,8.32396907216,1.55449573828,-1.21486071506,776,Twenty Nevern Square Hotel,London,51.4915712,-0.1963192
20 Pembridge Gardens Kensington and Chelsea London W2 4DU United Kingdom,7.87888888889,1.47842114725,-0.554575281181,90,The Abbey Court Notting Hill,London,51.5101401,-0.1968951
20 Rue De La Ga t 14th arr 75014 Paris France,7.97567567568,1.39570878159,-0.390602795263,37,Mercure Paris Gare Montparnasse,Paris,,
20 Rue Jean Rey 15th arr 75015 Paris France,7.86511024643,1.76361179933,-0.72643434035,771,Mercure Paris Centre Tour Eiffel,Paris,48.8548641,2.2923181
20 Rue La Fayette 9th arr 75009 Paris France,8.45471698113,1.63817968262,-1.08224767611,159,Banke H tel,Paris,48.8735736,2.335965
20 Upper Ground Southwark London SE1 9PD United Kingdom,9.11048336472,1.17944469085,-2.17094244199,1593,Mondrian London,London,51.5084036,-0.1067988
20 Warwick Street Westminster Borough London W1B 5NF United Kingdom,7.97150259067,1.85945397486,-0.858013447526,193,Karma Sanctum Soho Hotel,London,51.5116049,-0.1383145
20 bis rue de la Ga t 14th arr 75014 Paris France,8.22671755725,1.57840349855,-1.06452479469,131,H tel Le M,Paris,48.8397623,2.3235324
20 rue Berthollet 5th arr 75005 Paris France,8.64583333333,1.33096642753,-1.30082433149,48,Seven Hotel,Paris,48.8389823,2.3455528
20 rue de l Ing nieur Robert Keller 15th arr 75015 Paris France,8.86548672566,1.17251027345,-1.09153700895,113,Platine Hotel Spa,Paris,48.8473459,2.2832408
20 rue du Sommerard 5th arr 75005 Paris France,8.18133333333,1.57219878165,-0.761715110916,75,Mercure Paris Notre Dame Saint Germain des Pr s,Paris,48.8503074,2.3450612
202 220 Cromwell Road Kensington and Chelsea London SW5 0SW United Kingdom,8.23777777778,1.51700022496,-1.10325265865,225,NH London Kensington,London,51.4948507,-0.1945544
202 rue de Rivoli 1st arr 75001 Paris France,7.95114285714,1.85634629901,-0.872968825066,700,Saint James Albany Paris Hotel Spa,Paris,48.8642689,2.3308179
207 Boulevard Raspail 14th arr 75014 Paris France,8.3835443038,1.29093788007,-0.859234563517,79,Mercure Paris Montparnasse Raspail,Paris,48.8412131,2.3302954
209 211 rue de Charenton 12th arr 75012 Paris France,8.66547619048,1.25693230279,-0.885535138668,168,Golden Tulip Bercy Gare de Lyon 209,Paris,48.8393229,2.3892274
21 Avenue De La Grande Arm e 16th arr 75016 Paris France,8.33333333333,1.4847338667,-1.37284322248,228,Montfleuri,Paris,48.8747153,2.2906388
21 Avonmore Road Kensington Hammersmith and Fulham London W14 8RP United Kingdom,7.63913043478,2.07422340793,-0.791848978437,115,Simply Rooms Suites,London,51.4944875,-0.2070605
21 Boulevard De Clichy 9th arr 75009 Paris France,7.96769230769,1.85195063483,-0.925118493135,65,Mercure Paris Pigalle Sacre Coeur,Paris,48.8823398,2.3364764
21 Gower Street Camden London WC1E 6HG United Kingdom,7.89069767442,1.65136151163,-0.715540531214,258,The Academy,London,51.5205441,-0.1308091
21 Piccadilly Westminster Borough London W1J 0BH United Kingdom,7.59576923077,1.82173211538,-0.520851390013,260,Le Meridien Piccadilly,London,51.5094835,-0.1362538
21 rue F licien David 16th arr 75016 Paris France,8.45454545455,1.48118266865,-0.810354181845,66,H tel F licien by Elegancia,Paris,48.8493082,2.2743626
21 rue Lavoisier 8th arr 75008 Paris France,7.83333333333,2.75428041529,-1.07507722754,12,Le Lavoisier,Paris,48.8737702,2.3201063
21 rue Moli re 1st arr 75001 Paris France,9.37338709677,0.815012481421,-1.85766597014,124,H tel Moli re,Paris,48.8655293,2.3360102
21 rue de Dunkerque 10th arr 75010 Paris France,7.44496230295,1.80302110305,-0.561867178907,1459,Mercure Paris Terminus Nord,Paris,48.8794843,2.3556545
213 rue de la Croix Nivert 15th arr 75015 Paris France,8.29661016949,1.83020312625,-1.56395660111,59,Vice Versa,Paris,48.8363819,2.2897793
214 High Street Acton London London W3 9NX United Kingdom,9.03604651163,1.20175487279,-2.12289869875,86,The Kings Head Hotel,London,51.5079153,-0.2730145
214 rue Saint Jacques 5th arr 75005 Paris France,8.93333333333,1.51472927017,-2.02957750875,57,Hotel Le petit Paris,Paris,48.8452789,2.342295
214 rue du Faubourg Saint Honor 8th arr 75008 Paris France,8.23092105263,1.81831133189,-1.28817413579,152,H tel Etoile Saint Honor by Happyculture,Paris,48.8756508,2.3041568
216 Avenue Jean Jaures 19th arr 75019 Paris France,6.91296296296,1.87727686123,-0.363559247321,54,Mercure Paris 19 Philharmonie La Villette,Paris,48.8886969,2.3945403
218 220 rue du Faubourg St Honor 8th arr 75008 Paris France,7.05099009901,2.16877983668,-0.507304580811,202,Royal Garden Champs Elysees,Paris,48.8757155,2.3038781
218 rue de Rivoli 1st arr 75001 Paris France,8.69084507042,1.53263231974,-1.75871979805,284,H tel Brighton Esprit de France,Paris,48.8649306,2.3290844
22 24 Rue Faidherbe 11th arr 75011 Paris France,8.79365079365,1.35502327273,-1.4455419609,63,H tel Paris Bastille Boutet MGallery by Sofitel,Paris,48.8519215,2.3839993
22 25 Finsbury Square City Islington London EC2A 1DX United Kingdom,9.19468531469,1.23248502368,-2.14038879815,715,Montcalm Royal London House City of London,London,51.5218066,-0.0856081
22 28 Broadway Westminster Borough London SW1H 0BH United Kingdom,9.04301675978,1.36490377032,-2.23200724023,358,Conrad London St James,London,51.4993927,-0.1329128
22 Avenue du professeur lemierre 20th arr 75020 Paris France,7.24375,2.03085170279,-0.577894802773,192,Novotel Suites Paris Montreuil Vincennes,Paris,48.8554268,2.4152555
22 Hertsmere Road Tower Hamlets London E14 4ED United Kingdom,8.9786630655,1.29911761969,-1.66327942946,1481,London Marriott Hotel West India Quay,London,51.5072713,-0.0211213
22 Park Lane Westminster Borough London W1K 1BE United Kingdom,7.69121212121,1.91421217548,-0.613616900898,330,London Hilton on Park Lane,London,51.5055513,-0.1501698
22 Portman Square Westminster Borough London W1H 7BG United Kingdom,7.78858131488,1.72926747465,-0.530439651193,867,Radisson Blu Portman Hotel London,London,51.5161911,-0.1579487
22 Rue Danielle Casanova 1st arr 75002 Paris France,9.46551724138,0.618336398312,-0.974405283672,29,Hotel Stendhal Place Vend me Paris MGallery by Sofitel,Paris,48.8681455,2.3313064
22 Rue Tronchet 8th arr 75008 Paris France,8.61428571429,1.33523673663,-0.601046560294,14,Hotel Chavanel,Paris,48.8721692,2.3262681
22 Rue de La Parcheminerie 5th arr 75005 Paris France,9.18888888889,0.972159023875,-1.97702069544,162,Hotel Parc Saint Severin Esprit de France,Paris,48.8518584,2.3447798
22 Stanley Gardens Kensington and Chelsea London W11 2NG United Kingdom,9.03232323232,1.22389711142,-1.38302669097,99,The Portobello Hotel,London,51.512257,-0.2034244
22 avenue de Villiers 17th arr 75017 Paris France,8.22,1.4852254835,-0.899667569047,20,L Edmond H tel,Paris,48.8823111,2.3132374
22 rue d Antin 2nd arr 75002 Paris France,8.75666666667,1.19356993737,-1.20234101998,30,H tel France d Antin Op ra,Paris,48.8692566,2.3339369
22 rue de Buci 6th arr 75006 Paris France,9.07931034483,1.22757193246,-1.88813051313,58,H tel De Buci by MH,Paris,48.8538752,2.3366123
221 Rue Saint Honore 1st arr 75001 Paris France,8.60735294118,1.66295731011,-1.74874006732,136,Royal Saint Honore,Paris,48.8658792,2.3298903
222 Marylebone Road Westminster Borough London NW1 6JQ United Kingdom,8.99432098765,1.30925583341,-1.83411706831,405,Landmark London,London,51.519016,-0.166267
225 Edgware Road Westminster Borough London W2 1JU United Kingdom,7.31518842786,1.97241679684,-0.421681596962,2627,Hilton London Metropole,London,51.5195688,-0.170521
225 High Street Kensington Kensington and Chelsea London W8 6SA United Kingdom,7.4179144385,1.7659802534,-0.616194883247,374,Best Western Seraphine Kensington Olympia,London,51.4992791,-0.1973593
225 Ladbroke Grove Kensington and Chelsea London W10 6HQ United Kingdom,8.55877862595,1.63913064336,-1.51265362234,131,Portobello House,London,51.5199224,-0.2116636
228 Rue De Rivoli 1st arr 75001 Paris France,9.2075,1.25399617633,-2.29222526987,40,Le Meurice,Paris,48.8653685,2.328218
23 25 rue de Pont Neuf 1st arr 75001 Paris France,9.0064516129,1.26502393779,-1.30876154038,62,Maison Albar Hotel Paris C line,Paris,48.8606187,2.344401
23 Leinster Gardens Westminster Borough London W2 3AN United Kingdom,6.78444846293,2.02043239706,-0.213601218168,1106,Henry VIII,London,51.5124655,-0.182274
23 Mecklenburgh Square Camden London WC1N 2AD United Kingdom,8.63927038627,1.45166671131,-1.35726091918,466,Goodenough Club,London,51.525535,-0.1180354
23 Rue Damr mont 18th arr 75018 Paris France,8.43272727273,1.69137841501,-1.49256567527,55,Holiday Inn Paris Montmartre,Paris,,
23 Rue Vignon 8th arr 75008 Paris France,8.77394957983,1.27535054569,-1.44440626523,119,Hotel Vignon,Paris,48.8717146,2.3261812
23 rue du Faubourg Montmartre 9th arr 75009 Paris France,8.208,1.65945925684,-1.06651838256,200,Hotel Pulitzer Paris,Paris,48.8731996,2.3425446
230 A Mile End Road Tower Hamlets London E1 4LJ United Kingdom,7.32105263158,1.73753327767,-0.42815037122,114,London Suites,London,51.5215508,-0.0469238
232 Boulevard Raspail 14th arr 75014 Paris France,8.96089108911,1.37453934319,-2.19671987255,202,H tel Aiglon Esprit de France,Paris,48.8396623,2.3300582
234 Diputacio Eixample 08007 Barcelona Spain,7.86315789474,1.61771792294,-1.06403170638,57,Sansi Diputacio,Barcelona,41.3882234,2.1644551
239 Vauxhall Bridge Road Westminster Borough London SW1V 1EQ United Kingdom,8.5465003465,1.44698017041,-1.24377265126,1443,Park Plaza Victoria London,London,51.4942539,-0.1414756
24 27 Bedford Place Bloomsbury Camden London WC1B 5JH United Kingdom,8.58224299065,1.44370268867,-1.2878172895,321,Grange Beauchamp Hotel,London,51.5203266,-0.1245891
24 Egerton Gardens Kensington and Chelsea London SW3 2DB United Kingdom,8.90714285714,1.40684268815,-2.3790841695,28,The Franklin Hotel Starhotels Collezione,London,51.4960283,-0.1686355
24 Ludgate Hill City of London London EC4M 7DR United Kingdom,8.46824408468,1.41244147968,-1.06483432212,1606,Club Quarters Hotel St Paul s,London,51.5139298,-0.101126
24 Rue De Miromesnil 8th arr 75008 Paris France,7.71111111111,2.1172952246,-0.848018128257,63,Holiday Inn Paris Elys es,Paris,48.8730437,2.3161144
24 Rue d Amsterdam 9th arr 75009 Paris France,8.5609375,1.55640381449,-1.69695580974,192,Phileas Hotel,Amsterdam,48.8768854,2.3270623
24 rue Bassano 16th arr 75016 Paris France,7.85950413223,1.53783281018,-0.457616640216,121,Hotel Elys es Bassano,Paris,48.8689307,2.2974503
24 rue Cadet 9th arr 75009 Paris France,8.58923076923,1.35878197719,-1.04722211877,65,Hotel Opera Cadet,Paris,48.8754371,2.3434586
24 rue de Ponthieu 8th arr 75008 Paris France,7.98823529412,1.85680056369,-1.01151006293,289,H tel Beauchamps,Paris,48.87096,2.3091617
25 Avenue Montaigne 8th arr 75008 Paris France,9.56666666667,0.852894232264,-3.67766265999,36,Hotel Plaza Athenee Paris,Paris,48.8661932,2.3042141
25 Boulevard Auguste Blanqui 13th arr 75013 Paris France,7.84814814815,1.49212557998,-0.342467079789,27,Mercure Paris Place d Italie,Paris,48.830196,2.3529539
25 Courtfield Gardens Kensington and Chelsea London SW5 0PG United Kingdom,9.00977596741,1.22758521493,-1.98297385393,491,The Nadler Kensington,London,51.4931086,-0.190208
25 Rue Theodore de Banville 17th arr 75017 Paris France,8.82307692308,1.71811614186,-2.38254216802,13,XO Hotel,Paris,48.8827492,2.2982782
25 Rue Vernet 8th arr 75008 Paris France,8.56320754717,1.7051923769,-1.6140981045,106,H tel Vernet,Paris,48.871859,2.2978177
25 avenue du General Leclerc 14th arr 75014 Paris France,8.04597701149,1.60769857395,-0.902350740268,174,Best Western Nouvel Orl ans Montparnasse,Paris,48.8309896,2.3297301
25 rue des Saints P res 6th arr 75006 Paris France,9.21506849315,1.08649023454,-2.53511695545,146,H tel Da Vinci Spa,Paris,48.8565778,2.3319767
251 rue Saint Honor 1st arr 75001 Paris France,9.14285714286,0.900317404348,-1.32862257789,21,Mandarin Oriental Paris,Paris,48.8671889,2.326927
252 High Holborn Holborn Camden London WC1V 7EN United Kingdom,9.44897435897,0.856540824731,-2.49300806057,390,Rosewood London,London,51.5173303,-0.1180966
257 Rue De Vaugirard 15th arr 75015 Paris France,7.4837962963,1.82419563292,-0.516410890189,216,Novotel Paris Vaugirard Montparnasse,Paris,48.8399018,2.3031011
26 28 Trebovir Rd Kensington and Chelsea London SW5 9NJ United Kingdom,7.48801410106,1.80630195633,-0.545351543245,851,Mayflower Hotel Apartments,London,51.4916677,-0.1947475
26 33 Queens Gardens Westminster Borough London W2 3BE United Kingdom,8.26372239748,1.56198187113,-1.1245119467,317,Caesar Hotel,London,51.5134603,-0.1833081
26 42 Bond Street Ealing London W5 5AA United Kingdom,8.67578125,1.32924382587,-1.10799338742,128,Hotel Xanadu,London,51.5117907,-0.306071
26 Cadogan Gardens Kensington and Chelsea London SW3 2RP United Kingdom,9.07674418605,1.2067849609,-1.81751107544,129,Draycott Hotel,London,51.4930097,-0.159715
265 Rotherhithe Street Southwark London SE16 5HW United Kingdom,8.06248835042,1.79173319383,-0.895397527043,2146,DoubleTree by Hilton London Docklands Riverside,London,51.5043483,-0.0334436
27 33 Harrington Gardens Kensington and Chelsea London SW7 4JX United Kingdom,8.40151515152,1.85328566158,-1.27891674865,198,Bentley London,London,51.4928147,-0.1841753
27 Devonshire Terrace Westminster Borough London W2 3DP United Kingdom,8.18495188101,1.64183309316,-0.945992054072,2286,Park Grand Paddington Court,London,51.5135555,-0.180002
27 avenue des Ternes 17th arr 75017 Paris France,8.29047619048,1.09174390857,-0.175520388687,21,Mercure Paris Arc de Triomphe Etoile,Paris,48.8782679,2.294852
277 Carrer de Proven a Eixample 08037 Barcelona Spain,9.42235294118,0.926382682238,-2.52329007223,85,The One Barcelona GL,Barcelona,41.3961448,2.1631674
28 30 Seymour Street Westminster Borough London W1H 7JB United Kingdom,9.39146341463,0.748859415759,-1.7599196074,82,The Zetter Townhouse Marylebone,London,51.514839,-0.1586656
28 Basil Street Kensington and Chelsea London SW3 1AS United Kingdom,9.37301587302,0.861769812317,-2.01308785808,63,The Levin Hotel,London,51.4998574,-0.161717
28 Ebury Street Westminster Borough London SW1W 0LU United Kingdom,6.48,2.11185533617,0.0459586018053,180,The Tophams Hotel,London,51.4957436,-0.1477528
28 Rue de l Arc de Triomphe 17th arr 75017 Paris France,9.28,1.167752358,-3.33611264473,80,Hidden Hotel by Elegancia,Paris,48.8775326,2.293458
28 av Corentin Cariou 19th arr 75019 Paris France,7.39288702929,1.90891089098,-0.593187376508,239,Forest Hill Paris la Villette,Paris,48.8969854,2.3852745
28 place des Vosges 3rd arr 75003 Paris France,9.31932773109,0.851048935131,-1.89181795812,119,Le Pavillon de la Reine Spa,Paris,48.8562725,2.3660412
28 rue Saint Roch 1st arr 75001 Paris France,9.10434782609,1.18416762514,-1.63622543122,23,Le Roch Hotel Spa,Paris,48.8661991,2.3328826
284 To 302 Waterloo Road Southwark London SE1 8RQ United Kingdom,8.40330578512,1.56179457666,-1.2052110342,484,H10 London Waterloo,London,51.4988817,-0.1062888
29 31 Draycott Place Kensington and Chelsea London SW3 2SH United Kingdom,8.88360655738,1.22193185725,-1.47707628482,122,San Domenico House,London,51.4917798,-0.1616049
29 31 Gower Street Camden London WC1E 6HG United Kingdom,6.73668499607,1.83869929644,-0.243537894988,1273,Bloomsbury Palace Hotel,London,51.5207945,-0.1310845
29 31 rue de Poitou 3rd arr 75003 Paris France,9.31212121212,0.769318409926,-1.27066981827,66,Hotel du Petit Moulin,Paris,48.8615843,2.3620652
29 31 rue des Ecoles 5th arr 75005 Paris France,8.69419354839,1.40962547802,-1.51855185509,155,Hotel Atmospheres,Paris,48.8485387,2.3479852
29 Avenue De Tourville 7th arr 75007 Paris France,9.03818181818,1.26490974535,-1.92670455328,110,H tel La Comtesse by Elegancia,Paris,48.853865,2.3072019
29 Rue Jacob 6th arr 75006 Paris France,9.12549019608,1.14958133897,-1.53746090115,51,Hotel La Villa Saint Germain Des Pr s,Paris,48.8553486,2.3340736
29 rue Caumartin 9th arr 75009 Paris France,8.25294117647,1.33671585207,-0.502813417051,34,Hotel Astra Opera Astotel,Paris,48.8718321,2.3278866
29 rue Victor Mass 9th arr 75009 Paris France,9.19210526316,1.11879713669,-2.07926728031,114,Grand Pigalle Hotel,Paris,48.880856,2.3375085
291 Greenwich High Road Greenwich Greenwich London SE10 8NA United Kingdom,8.28509036145,1.43151471559,-0.807471399163,664,Innkeeper s Lodge London Greenwich,London,51.4801631,-0.0097201
2e Hugo de Grootstraat 2 6 Westerpark 1052 LC Amsterdam Netherlands,8.85906040268,1.1743320944,-1.35934022701,149,Morgan Mees,Amsterdam,52.3743712,4.8746196
3 5 rue du Mont Thabor 1st arr 75001 Paris France,8.29666666667,1.46568886462,-1.19320066035,150,Hotel Duminy Vendome,Paris,48.8654726,2.3292934
3 Berkeley Street Westminster Borough London W1J 8NE United Kingdom,8.05239567233,1.6092004181,-0.821861260429,647,Holiday Inn London Mayfair,London,51.507746,-0.1422993
3 Bis Place Saint Sulpice 6th arr 75006 Paris France,8.97954545455,1.17286759408,-1.56320476021,44,H tel Recamier,Paris,48.8503493,2.3344305
3 Boulevard Montmartre 2nd arr 75002 Paris France,7.96478873239,1.74160013383,-0.974682708012,71,TRYP Paris Op ra,Paris,48.8713619,2.3426375
3 Boulevard Saint Michel 5th arr 75005 Paris France,8.20070422535,1.59395928935,-1.17899175209,284,Royal Saint Michel,Paris,48.8528364,2.3440803
3 Devonshire Terrace Westminster Borough London W2 3DN United Kingdom,7.90215827338,1.6545296157,-0.687460845215,278,Paddington Court Executive Rooms,London,51.5138357,-0.1797976
3 Kingdom Street Sheldon Square Westminster Borough London W2 6BD United Kingdom,8.43810741688,1.57361432695,-1.13052973668,391,Novotel London Paddington,London,51.519032,-0.1825943
3 Place du G n ral Koenig 17th arr 75017 Paris France,6.82448512586,2.11268899147,-0.119849988222,874,Hyatt Regency Paris Etoile,Paris,48.8802782,2.2843852
3 Rue Abb De L Ep e 5th arr 75005 Paris France,8.77333333333,1.29470371247,-1.47734798275,120,Relais Saint Jacques,Paris,48.8430523,2.3422519
3 Rue Cambon 1st arr 75001 Paris France,8.31272727273,1.48599069653,-0.849732315696,55,Hotel Cambon,Paris,48.866435,2.3251076
3 Rue Caulaincourt 18th arr 75018 Paris France,8.28624535316,1.68688875918,-1.25689685565,269,Mercure Paris Montmartre Sacr Coeur,Paris,48.8852794,2.3301021
3 Rue Christine 6th arr 75006 Paris France,9.08369565217,1.34730314054,-2.31782186459,92,Relais Christine,Paris,48.8542454,2.339956
3 Rue De Boulainvilliers 16th arr 75016 Paris France,8.31071428571,1.55046929233,-1.57835167167,28,Hotel Square,Paris,48.851589,2.2777274
3 Rue Pergolese 16th arr 75116 Paris France,8.19128205128,1.54485374393,-1.09765729623,195,L Hotel Pergol se Paris,Paris,48.8756618,2.2863468
3 Rue Rouget De Lisle 1st arr 75001 Paris France,8.71176470588,1.35744569819,-1.70211584261,51,H tel Mayfair Paris,Paris,48.8661363,2.3260648
3 Rue Verniquet 17th arr 75017 Paris France,8.18591549296,1.72480191613,-1.27405073546,71,Best Western Plus de Neuville Arc de Triomphe,Paris,48.8869128,2.3004034
3 Rue de Montalembert 7th arr 75007 Paris France,8.50227272727,1.75955711081,-1.40459867797,44,Hotel Montalembert,Paris,48.8567042,2.3277805
3 South Place City of London London EC2M 2AF United Kingdom,9.26492307692,1.22025109119,-3.11068051852,325,South Place Hotel,London,51.5189182,-0.0866009
3 Westbourne Terrace Lancaster Gate Westminster Borough London W2 3UL United Kingdom,8.75068493151,1.436722639,-1.63010826214,146,The Royal Park Hotel,London,51.5142054,-0.1766098
3 avenue Mac Mahon 17th arr 75017 Paris France,8.12264150943,1.95697145663,-0.992641106694,159,Maison Albar H tel Paris Champs Elys es ex Mac Mahon ,Paris,48.8753837,2.2944651
3 rue Clauzel 9th arr 75009 Paris France,8.3,1.98136479519,-1.17823542475,63,Les Matins de Paris Spa,Paris,48.878932,2.3394182
3 rue Lepic 18th arr 75018 Paris France,8.20573770492,1.74783451286,-1.31070780925,122,Hotel Le Squara,Paris,48.884165,2.3328261
3 rue de Bourgogne 7th arr 75007 Paris France,9.0842519685,1.09221089283,-1.75531999239,127,H tel Bourgogne Montana by MH,Paris,48.8601927,2.318423
3 rue de Castiglione 1st arr 75001 Paris France,7.80363636364,1.78186209542,-0.493392252676,110,The Westin Paris Vend me,Paris,48.8657394,2.3274415
3 rue de Ponthieu 8th arr 75008 Paris France,8.71855670103,1.43785461204,-1.35167512208,194,H tel Mathis Elys es,Paris,48.8700325,2.3112736
3 rue du Pr aux Clercs 7th arr 75007 Paris France,8.82142857143,1.38097450821,-1.51143257439,42,Le Saint Hotel Paris,Paris,48.8565421,2.3303504
30 32 Boulevard Poissonni re 9th arr 75009 Paris France,7.99545454545,1.75333948019,-1.25112547554,110,Holiday Inn Paris Op ra Grands Boulevards,Paris,48.8715469,2.3439622
30 Barkston Gardens Kensington and Chelsea London SW5 0EN United Kingdom,8.60190930788,1.32818045892,-1.13726193371,419,Henley House Hotel,London,51.4922348,-0.1914229
30 Jamestown Road Camden London NW1 7BY United Kingdom,8.73324324324,1.30806916771,-1.22663367849,740,Holiday Inn London Camden Lock,London,51.5404555,-0.1460833
30 John Islip St Westminster Borough London SW1P 4DD United Kingdom,8.49074818986,1.48200793095,-1.12707172588,1243,DoubleTree by Hilton London Westminster,London,51.4932356,-0.1269082
30 Leinster Gardens Bayswater Westminster Borough London W2 3AN United Kingdom,8.52672176309,1.47211483641,-1.21380477278,2178,Blakemore Hyde Park,London,51.5129736,-0.1837431
30 Portman Square Westminster Borough London W1H 7BH United Kingdom,8.633984375,1.54951521317,-1.70712066997,256,Hyatt Regency London The Churchill,London,51.5156471,-0.1572443
30 Rathbone Street West End Westminster Borough London W1T 1LB United Kingdom,8.28728813559,1.50503667768,-0.950028982061,354,Rathbone,London,51.5186801,-0.1354055
30 Rue Duret 16th arr 75016 Paris France,8.58684210526,1.65107189632,-1.7624212643,38,Duret,Paris,48.8752553,2.286653
30 Rue Jean Mermoz 8th arr 75008 Paris France,8.76728971963,1.53418749321,-1.62180093322,107,H tel Elysees Mermoz,Paris,48.8715079,2.3122259
30 Rue La P rouse 16th arr 75016 Paris France,8.48421052632,2.04272291989,-1.58682426614,38,Majestic Hotel Spa,Paris,48.8703672,2.2938868
30 Rue de Bassano 16th arr 75016 Paris France,8.22168674699,1.73282852042,-0.835534608379,83,Le Belmont Champs Elys es,Paris,48.8691984,2.2979052
30 rue Pernety 14th arr 75014 Paris France,8.9387755102,1.33476220206,-1.41133161274,49,BoB Hotel by Elegancia,Paris,48.8335233,2.3191194
31 33 Argyle Street Camden London WC1H 8EP United Kingdom,8.12239819005,1.70516639117,-0.917197005413,442,Comfort Inn Suites Kings Cross St Pancras,London,51.5289499,-0.1232979
31 34 Queen s Gate Kensington and Chelsea London SW7 5JA United Kingdom,8.18893925657,1.51336006098,-0.879233867655,1103,The Queens Gate Hotel,London,51.4981225,-0.1799693
31 35 Langham Street Westminster Borough London W1W 6BU United Kingdom,7.97364864865,1.61565902958,-0.699682230695,296,Grange Langham Court Hotel,London,51.5189077,-0.1421957
31 36 Leicester Square Westminster Borough London WC2H 7LH United Kingdom,8.69770444763,1.43681896767,-1.34628769877,697,Radisson Blu Edwardian Hampshire,London,51.509963,-0.129797
31 Avenue George V 8th arr 75008 Paris France,9.48181818182,1.10920391873,-3.80499963234,121,Four Seasons Hotel George V Paris,Paris,48.8687512,2.3001692
31 Great Cumberland Place Westminster Borough London W1H 7TA United Kingdom,8.07201426025,1.82593939809,-0.893616460238,561,The Marble Arch London,London,51.5151247,-0.1600656
31 Rue de Surene 8th arr 75008 Paris France,8.78689320388,1.3691275692,-1.80420588215,206,H tel du Minist re,Paris,48.8712877,2.3191903
31 St Thomas Street Southwark London SE1 9QU United Kingdom,9.36855345912,0.967994743221,-2.86373146978,1113,Shangri La Hotel at The Shard London,London,51.5044972,-0.0855562
31 rue de la Folie M ricourt 11th arr 75011 Paris France,9.55922330097,0.701460226704,-2.86142129516,103,H tel Fabric,Paris,48.8629329,2.3723823
32 Rue Greuze 16th arr 75016 Paris France,8.44328358209,1.65311678817,-1.26519021084,67,Plaza Tour Eiffel,Paris,48.8645647,2.2821827
32 rue des Ecoles 5th arr 75005 Paris France,8.20503144654,1.68623611806,-1.30588181781,159,Hotel Les Bulles De Paris,Paris,48.849147,2.3471935
32 rue des Saints P res 7th arr 75007 Paris France,9.06470588235,1.15629457214,-1.93176566922,255,Acad mie H tel Saint Germain,Paris,48.855263,2.3305901
33 37 Hogarth Road Kensington and Chelsea London SW5 0QQ United Kingdom,8.47808551992,1.61441333361,-1.30548280748,2058,Park Grand London Kensington,London,51.4938468,-0.1917582
33 Albemarle Street Mayfair Westminster Borough London W1S 4BP United Kingdom,9.10408163265,1.08627022108,-1.96053685783,49,Rocco Forte Brown s Hotel,London,51.5090558,-0.1421661
33 Avenue Du Docteur Arnold Netter 12th arr 75012 Paris France,7.06486486486,1.91052875407,-0.21304689242,37,Best Western Allegro Nation,Paris,48.8430891,2.4049867
33 Beaufort Gardens Kensington and Chelsea London SW3 1PP United Kingdom,8.83476190476,1.42075564182,-1.86664785705,210,The Beaufort,London,51.4978466,-0.164156
33 Boulevard du Montparnasse 6th arr 75006 Paris France,8.7,1.24971541476,-1.15596124953,124,H tel La Parizienne by Elegancia,Paris,48.8450894,2.3209503
33 Roland Gardens Kensington and Chelsea London SW7 3PF United Kingdom,7.97105263158,1.75543466902,-0.771174837936,76,Blakes Hotel,London,51.4892447,-0.1803196
33 Rue Cambon 1st arr 75001 Paris France,8.63067484663,1.60371217856,-1.49572766342,163,Castille Paris Starhotels Collezione,Paris,48.8682978,2.3268027
33 Rue Dauphine 6th arr 75006 Paris France,9.55204081633,0.622210568459,-2.0832369713,294,H tel D Aubusson,Paris,48.8547329,2.3395277
33 avenue George V 8th arr 75008 Paris France,8.7525,1.31363412539,-1.16390193299,40,Prince de Galles a Luxury Collection hotel Paris,Paris,48.869143,2.3006526
33 avenue de Friedland 8th arr 75008 Paris France,7.73904761905,1.90672419997,-0.758096965788,210,Royal Hotel Champs Elys es,Paris,48.8740463,2.300196
33 place de la Madeleine 8th arr 75008 Paris France,8.63405797101,1.42851545507,-1.59165616892,138,Madeleine Plaza,Paris,48.8710402,2.3248014
33 rue Marbeuf 8th arr 75008 Paris France,8.79404761905,1.48635165782,-1.6988682019,84,Hotel Oscar,Paris,48.8694755,2.3046954
33 rue Raymond Losserand 14th arr 75014 Paris France,7.67446808511,1.72269755945,-0.889367756391,188,Best Western Bretagne Montparnasse,Paris,48.8354314,2.321142
335 337 High Street Stratford Newham London E15 2TF United Kingdom,8.98722316865,1.22931636553,-1.79654576754,587,The Westbridge Hotel,London,51.5373904,-0.0023367
335 337 Old Street Hackney London EC1V 9LL United Kingdom,8.82972972973,1.41262453122,-1.55420052784,259,Courthouse Hotel Shoreditch,London,51.5273442,-0.0796152
336 337 Strand London Westminster Borough London WC2R 1HA United Kingdom,9.16978723404,1.20842015555,-2.17470080905,470,ME London by Melia,London,51.511879,-0.118552
34 37 Bedford Place Bloomsbury Camden London WC1B 5JR United Kingdom,8.05311653117,1.53900281449,-0.837237637182,369,Grange Clarendon Hotel,London,51.5197933,-0.1241844
34 44 Barkston Gardens Kensington and Chelsea London SW5 0EW United Kingdom,9.22974504249,0.99743659666,-2.51781599533,353,Hotel Indigo London Kensington,London,51.4920287,-0.1917801
34 Avenue Porte d Asni res 17th arr 75017 Paris France,7.70099009901,1.75251219964,-0.831950657802,101,Novotel Paris 17,Paris,48.8920485,2.3023791
34 Lombard Road Battersea London SW11 3RF United Kingdom,7.84534883721,1.93644766717,-0.798041836615,774,Rafayel Hotel Spa,London,51.4703604,-0.1779869
34 Norfolk Place Paddington Westminster Borough London W2 1QW United Kingdom,7.88465055519,1.75203509829,-0.819908906798,1531,Norfolk Towers Paddington,London,51.5162883,-0.1721078
34 Rue Fontaine 9th arr 75009 Paris France,8.62580645161,1.39524839816,-1.4143138366,93,Timhotel Op ra Blanche Fontaine,Paris,48.8825781,2.3334805
34 Rue Viala 15th arr 75015 Paris France,8.71393939394,1.31857725292,-1.22424340451,165,H tel Gustave,Paris,48.8502052,2.289043
34 Rue de Buci 6th arr 75006 Paris France,9.13793103448,1.19924356074,-1.59732153488,58,Artus Hotel by MH,Paris,48.8535639,2.3360169
34 rue Jean Mermoz 8th arr 75008 Paris France,9.20294117647,1.05471101718,-1.44593992868,34,H tel Amastan Paris,Paris,48.8716831,2.3123759
34 rue de Moscou 8th arr 75008 Paris France,8.86606498195,1.3888283703,-1.99194658495,277,Best Western Premier Kapital Op ra,Paris,48.8814425,2.3235592
346 348 Edgware Road Westminster Borough London W2 1EA United Kingdom,6.375,2.01502631502,0.00140432460989,220,Best Western Maitrise Hotel Edgware Road,London,51.521148,-0.171346
35 39 St Georges Drive Westminster Borough London SW1V 4DG United Kingdom,8.35945121951,1.52089493735,-1.25732979031,328,Georgian House Hotel,London,51.490724,-0.143868
35 Boulevard de la tour Maubourg 7th arr 75007 Paris France,7.85135135135,1.50052440543,-0.699757006747,74,Best Western Tour Eiffel Invalides,Paris,48.8593152,2.3104179
35 Charles Street Mayfair Westminster Borough London W1J 5EB United Kingdom,9.23713692946,1.00841083368,-1.91732445619,482,The Chesterfield Mayfair,London,51.5076899,-0.1471358
35 Ixworth Place Kensington and Chelsea London SW3 3QX United Kingdom,8.18062200957,1.52327508949,-0.786939021574,418,My Chelsea,London,51.4919083,-0.1684398
35 Rue Benjamin Franklin 16th arr 75016 Paris France,7.99921875,1.79520341197,-1.02053106184,128,Eiffel Trocad ro,Paris,48.8613055,2.2862823
35 Rue Caumartin 9th arr 75009 Paris France,8.92140992167,1.23693638457,-1.95625994244,383,Hotel Saint Petersbourg Opera,Paris,48.872174,2.328075
35 Rue De Berri 8th arr 75008 Paris France,9.02615384615,1.32231767683,-2.27751212206,65,H tel Champs lys es Plaza,Paris,48.8737043,2.3061477
35 Rue Jean Goujon 8th arr 75008 Paris France,7.92641509434,1.5976125148,-0.670719912241,53,Melia Paris Tour Eiffel,Paris,48.8651994,2.3045076
35 Rue La Bruy re 9th arr 75009 Paris France,8.42151898734,1.41771492615,-1.31179630345,79,Timhotel Op ra Grands Magasins,Paris,48.8794682,2.3334957
35 St James s Place Westminster Borough London SW1A 1NY United Kingdom,8.80135135135,1.10335642886,-1.12458766082,74,Dukes Hotel,London,51.5055381,-0.1396885
350 Oxford Street Westminster Borough London W1C 1BY United Kingdom,8.05765765766,1.60374952972,-0.9030369368,555,Radisson Blu Edwardian Berkshire,London,51.5146025,-0.1481978
354 Queenstown Road Battersea London SW8 4AE United Kingdom,8.51748942172,1.51342538632,-1.29024643128,709,Pestana Chelsea Bridge Hotel Spa,London,51.4815995,-0.1481053
36 37 Lancaster Gate Westminster Borough London W2 3NA United Kingdom,8.50157384988,1.55022889962,-1.38425682482,826,Arbor Hyde Park,London,51.5126488,-0.1803795
36 38 Rue Du Moulin 92170 Paris France,7.575,2.09514089851,-0.744200707186,40,Mercure Paris Porte De Versailles Expo,Paris,48.8268251,2.2912033
36 Great st Helens City of London London EC3A 6AP United Kingdom,7.22192307692,1.79775608203,-0.3846563514,520,Great St Helen Hotel,London,51.5149583,-0.0823869
36 Rue Saint Marc 2nd arr 75002 Paris France,9.41315789474,0.810159178641,-2.78232291251,76,H tel Saint Marc,Paris,48.8708863,2.3382128
36 rue Pierre Demours 17th arr 75017 Paris France,8.16552901024,1.74593642006,-1.02640807166,293,Westside Arc de Triomphe Hotel,Paris,48.8811741,2.2948337
36 rue Saint Ferdinand 17th arr 75017 Paris France,8.33737373737,1.43225139301,-0.921537534819,99,Etoile Saint Ferdinand,Paris,48.8777895,2.2872498
36 rue de Saint Quentin 10th arr 75010 Paris France,9.31071428571,1.04786883746,-2.89555657137,28,Hotel Whistler,Paris,48.879314,2.3560185
36 rue du Grenier Saint Lazare 3rd arr 75003 Paris France,9.0137254902,1.29892564958,-1.67362855517,51,Hotel Georgette,Paris,48.8632723,2.352691
368 370 Green Lanes London N4 1DA United Kingdom,7.38385650224,1.99004491258,-0.647986034791,223,United Lodge Hotel and Apartments,London,51.5743549,-0.0977567
37 Avenue De La Motte Picquet 7th arr 75007 Paris France,9.1380952381,1.18952804024,-2.55970550362,63,H tel Le Walt,Paris,48.8547161,2.306642
37 Avenue Hoche 8th arr 75008 Paris France,8.99090909091,1.43324775744,-1.71974102742,22,H tel Le Royal Monceau Raffles Paris,Paris,48.8756359,2.3004967
37 Eccleston Square Westminster Borough London SW1V 1PB United Kingdom,8.29825581395,1.77646978394,-1.23009831896,172,Eccleston Square Hotel,London,51.4911924,-0.1449474
37 Nottingham Place Westminster Borough London W1U 5LT United Kingdom,8.15829959514,1.74507493471,-0.997692561133,247,Nottingham Place Hotel,London,51.522143,-0.153385
37 rue Fran ois 1er 8th arr 75008 Paris France,8.32780748663,1.69035117728,-1.1101866077,187,Hotel Claridge Paris,Paris,48.8684243,2.3036244
372 Strand Westminster Borough London WC2R 0JJ United Kingdom,8.12869565217,1.56381766337,-0.798989086916,4255,Strand Palace Hotel,London,51.5110993,-0.1208673
38 Rue Du Faubourg Saint Honore 8th arr 75008 Paris France,7.11094527363,2.16607469908,-0.491578495254,201,H tel De Castiglione,Paris,48.8691758,2.3205807
38 rue de l Echiquier 10th arr 75010 Paris France,9.25467625899,1.0329515205,-3.07594789108,139,H tel L Echiquier Op ra Paris MGallery by Sofitel,Paris,48.8719889,2.3492913
380 Kensington High Street Kensington and Chelsea London W14 8NL United Kingdom,7.26231721035,1.90349004574,-0.336340247611,889,Hilton London Olympia,London,51.4967399,-0.2064723
39 40 Bedford Place Bloomsbury Camden London WC1B 5JT United Kingdom,8.65918367347,1.19633439572,-1.02543321244,49,Grange Buckingham Hotel,London,51.5196124,-0.1239628
39 40 Cleveland Square Westminster Borough London W2 6DA United Kingdom,8.21626297578,1.51643034333,-1.08623950562,289,The Cleveland,London,51.5139692,-0.1828202
39 40 Dorset Square Hotel Westminster Borough London NW1 6QN United Kingdom,9.01382113821,1.30781542309,-2.06996766626,123,Dorset Square Hotel,London,51.5226361,-0.1602871
39 Avenue de Wagram 17th arr 75017 Paris France,8.42916666667,1.70680220262,-1.82278824446,48,Renaissance Paris Arc de Triomphe Hotel,Paris,48.8772093,2.2968266
39 Avenue de l Op ra 2nd arr 75002 Paris France,9.07445652174,1.22177409674,-2.36778988879,184,Edouard 7 Paris Op ra,Paris,48.8683133,2.3330851
39 Buckingham Palace Road Westminster Borough London SW1W 0PS United Kingdom,8.89058823529,1.33472168761,-1.59913190111,765,Rubens At The Palace,London,51.4981471,-0.1436492
39 Coventry Street Westminster Borough London W1D 6BZ United Kingdom,8.97407407407,1.25581958997,-1.7677592733,567,every hotel Piccadilly,London,51.5101462,-0.1315061
4 18 Harrington Gardens Kensington and Chelsea London SW7 4LH United Kingdom,7.67269890796,1.82060955903,-0.642031142781,2564,Millennium Gloucester Hotel London,London,51.4935083,-0.1834346
4 Boulevard Brune 14th arr 75014 Paris France,8.72412280702,1.37836864017,-1.75736372456,228,Novotel Suites Paris Expo Porte de Versailles,Paris,48.827388,2.305478
4 Boulevard Raspail 7th arr 75007 Paris France,8.44969325153,1.48944488299,-1.10244761177,326,K K H tel Cayr Saint Germain des Pr s,Paris,48.8553117,2.3254628
4 Broad Court Bow Street Covent Garden Westminster Borough London WC2B 5QZ United Kingdom,8.78281036835,1.23578441861,-1.5186223726,733,Fielding Hotel,London,51.5139315,-0.1219893
4 Bryanston St Marble Arch Westminster Borough London W1H 7BY United Kingdom,7.97082352941,1.8011122165,-0.938951101143,425,DoubleTree by Hilton Hotel London Marble Arch,London,51.514573,-0.15666
4 Portal Way Gypsy Corner A40 London W3 6RT United Kingdom,7.98273894437,1.76638498523,-0.816605952598,701,Holiday Inn London West,London,51.5210117,-0.2628618
4 Richmond Mews Westminster Borough London W1D 3DH United Kingdom,9.5974522293,0.668805771179,-4.08604255077,157,The Soho Hotel,London,51.5139805,-0.1337948
4 Rue De Valois 1st arr 75001 Paris France,9.32087378641,0.972048986817,-1.84438562111,206,Grand H tel Du Palais Royal,Paris,48.8630829,2.3378592
4 Rue Du Mont Thabor 1st arr 75001 Paris France,8.57857142857,1.4977822433,-1.14870171607,14,Renaissance Paris Vendome Hotel,Paris,48.8654532,2.3295231
4 Rue La Boetie 8th arr 75008 Paris France,8.63376623377,1.54599295584,-1.76017443441,154,Hotel Park Lane Paris,Paris,48.8745879,2.3188143
4 Rue de L Isly 8th arr 75008 Paris France,8.26222222222,1.4847977033,-1.05065453771,90,Mercure Paris Opera Garnier,Paris,48.8749511,2.3259532
4 Rue des Petites Ecuries 10th arr 75010 Paris France,7.844,1.79146799462,-1.0499659795,100,Best Western Aulivia Op ra,Paris,48.8730552,2.3540112
4 rue Amsterdam 9th arr 75009 Paris France,7.20666666667,2.22802422653,-0.443055047438,30,Le Grand H tel de Normandie,Amsterdam,48.8759461,2.3270955
4 rue Cadet 9th arr 75009 Paris France,8.77258064516,1.5022572475,-1.45600862024,62,Monsieur Cadet Hotel Spa Ex Meyerhold Spa ,Paris,48.8742767,2.3426276
4 rue Danton 6th arr 75006 Paris France,8.47674418605,1.44604888034,-1.12186829982,301,Holiday Inn Paris Notre Dame,Paris,48.8528427,2.3422256
4 rue Salomon de Caus 3rd arr 75003 Paris France,8.35841584158,1.49579547554,-1.09502656129,303,Little Palace Hotel,Paris,48.8675674,2.3539896
4 rue d Alger 1st arr 75001 Paris France,9.68852459016,0.505007709729,-2.45430991516,61,H tel de La Tamise Esprit de France,Paris,48.8648656,2.3295756
4 rue d Anjou 8th arr 75008 Paris France,8.59487179487,1.69017679925,-1.43574460151,117,Buddha Bar Hotel Paris,Paris,48.8694695,2.3208564
4 rue d Artois 8th arr 75008 Paris France,9.15714285714,1.13138487971,-1.92093831386,91,Le A,Paris,48.8723844,2.3088663
4 rue de la P pini re 8th arr 75008 Paris France,8.74103448276,1.47190727862,-1.41392056023,290,Maison Albar Hotel Paris Op ra Diamond,Paris,,
40 Liverpool Street City of London London EC2M 7QN United Kingdom,9.01888246628,1.2606419213,-1.60138547193,519,Andaz London Liverpool Street,London,51.5172825,-0.0812451
40 Marsh Wall Tower Hamlets London E14 9TP United Kingdom,8.92465753425,1.36894430223,-1.92037481676,146,Novotel London Canary Wharf,London,51.5011704,-0.0232607
40 Rue Rene Boulanger 10th arr 75010 Paris France,8.82307692308,1.10011654394,-0.726574161782,13,Renaissance Paris Republique Hotel Spa,Paris,48.8687804,2.3610196
40 Rue du Commandant Ren Mouchotte 14th arr 75014 Paris France,7.60867052023,1.89964882766,-0.754161624173,692,H tel Concorde Montparnasse,Paris,48.8381079,2.318669
40 avenue de Friedland 8th arr 75008 Paris France,8.54615384615,1.50107477727,-1.54250067503,234,Napoleon Paris,Paris,48.8743885,2.2980915
40 rue Liancourt 14th arr 75014 Paris France,7.86538461538,2.12583532386,-0.869302331213,78,Suites H tel Helzear Montparnasse,Paris,48.8346811,2.3255098
40 rue de Lille 7th arr 75007 Paris France,9.05277777778,1.12752866984,-2.22703008904,144,H tel de Lille,Paris,48.8585626,2.3299138
40 trinity square City of London London EC3N 4DJ United Kingdom,9.1355529132,1.08467062847,-1.86341430326,1682,citizenM Tower of London,London,51.510237,-0.0764428
407 Goldhawk Rd Chiswick London W6 0SA United Kingdom,7.85555555556,1.76866207237,-0.816100041509,342,Chiswick Rooms,London,51.4937409,-0.244896
41 43 Brook Street Westminster Borough London W1K 4HJ United Kingdom,9.34394904459,1.12792852904,-2.52836141261,157,Claridge s,London,51.5125035,-0.1477438
41 51 Inverness Terrace Westminster Borough London W2 3JN United Kingdom,7.74075342466,1.87492500125,-0.838924970867,292,La Suite West Hyde Park,London,51.5126758,-0.1867828
41 54 Buckingham Gate Westminster Borough London SW1E 6AF United Kingdom,8.71502415459,1.48915245548,-1.46871860951,2070,St James Court A Taj Hotel London,London,51.4986732,-0.1376867
41 Avenue Marceau 16th arr 75016 Paris France,8.17826086957,1.67463381638,-1.11583017712,276,Elys es R gencia,Paris,48.8686434,2.2984054
41 Avenue Pierre 1er de Serbie 8th arr 75008 Paris France,8.82784810127,1.51199788944,-1.80815094147,79,H tel De Sers Champs Elys es Paris,Paris,48.8683593,2.3002117
41 Buckingham Palace Road Westminster Borough London SW1W 0PS United Kingdom,9.71165048544,0.590496794976,-3.27541177097,103,41,London,51.4981471,-0.1436492
41 Great Cumberland Place Westminster Borough London W1H 7LG United Kingdom,8.01453287197,1.7813842171,-0.734592724949,289,Shaftesbury Suites London Marble Arch,London,51.515755,-0.1603335
41 Queens Gate Gardens Kensington and Chelsea London SW7 5NB United Kingdom,8.09732142857,1.49769157624,-0.695799380348,448,Grange Strathmore Hotel,London,51.4958184,-0.1813958
41 Rue Des Ecoles 5th arr 75005 Paris France,8.16811594203,1.68425804575,-1.14988951536,276,Villa Panth on,Paris,48.8488044,2.3469889
41 boulevard Saint Michel 5th arr 75005 Paris France,9.13026315789,1.31527145606,-2.97147306891,152,Hotel le Lapin Blanc,Paris,48.8491801,2.3423357
41 rue Jean Baptiste Pigalle 9th arr 75009 Paris France,8.36393442623,1.3842004656,-0.794605739481,61,Trinit Haussmann,Paris,48.8800565,2.3342353
41 rue de Clichy 9th arr 75009 Paris France,9.3407079646,0.750670791471,-1.40145014336,113,H tel R de Paris Boutique Hotel,Paris,48.8799239,2.3288332
419 437 Hackney Road London E2 8PP United Kingdom,7.77446808511,1.75382281765,-0.791875598266,893,The RE London Shoreditch,London,51.531979,-0.061598
42 46 Chiswell Street City of London London EC1Y 4SB United Kingdom,9.00216508796,1.30812373955,-2.02095598982,739,London City Suites,London,51.5206309,-0.0915341
42 Rue Des Petites Ecuries 10th arr 75010 Paris France,8.03538461538,1.65618450524,-1.14431063073,65,Mercure Paris Opera Grands Boulevards,Paris,48.8740668,2.3502172
42 rue Croix des Petits Champs 1st arr 75001 Paris France,8.96951219512,1.43240185275,-2.05897079507,82,H tel Crayon Rouge by Elegancia,Paris,48.8644967,2.3405415
43 51 Wembley Hill Road Brent London HA9 8AU United Kingdom,8.94971098266,1.33325160182,-1.79495836007,1211,St George s Hotel Wembley,London,51.5553678,-0.2864945
43 Rue De l Abb Gr goire 6th arr 75006 Paris France,8.245,1.97603403977,-1.26816196344,20,Hotel Le Saint Gregoire,Paris,48.8471891,2.3260138
43 Rue des Mathurins 8th arr 75008 Paris France,8.4,1.39863445687,-1.18105320848,158,Le Mathurin Hotel Spa,Paris,48.8732068,2.3239015
43 Worple Road Wimbledon London SW19 4JZ United Kingdom,8.29269230769,1.30596510177,-0.430473969497,260,The Justin James Hotel,London,51.4202661,-0.211268
43 rue Monsieur le Prince 6th arr 75006 Paris France,9.25333333333,0.689400266371,-1.40017090939,45,H tel Saint Paul Rive Gauche,Paris,48.8496819,2.3402806
44 Grosvenor Square Westminster Borough London W1K 2HP United Kingdom,7.63426517572,1.83260723009,-0.586374416464,1252,Millennium Hotel London Mayfair,London,51.510574,-0.1509951
44 Rue Madame 6th arr 75006 Paris France,8.85365853659,1.42233919319,-1.57137980135,41,A La Villa Madame,Paris,48.8488608,2.3315257
44 rue de Bourgogne 7th arr 75007 Paris France,8.84105263158,1.37341744416,-2.08153391444,95,H tel de Varenne,Paris,48.8570275,2.3170282
45 Curtain Road Hackney London EC2A 4PJ United Kingdom,8.88333333333,1.60754328163,-1.6305847526,30,The Curtain,London,51.5237209,-0.0806178
45 Park Lane Westminster Borough London W1K 1PN United Kingdom,9.60357142857,0.564034503054,-1.42861250025,28,45 Park Lane Dorchester Collection,London,51.5063709,-0.1515359
45 Prescot Street City of London London E1 8GP United Kingdom,8.80898550725,1.37744862582,-1.41654353037,690,Grange Tower Bridge Hotel,London,51.5115509,-0.0714919
45 Rue des Acacias 17th arr 75017 Paris France,9.08070175439,1.32374449904,-2.10991110104,57,Le Tsuba Hotel,Paris,48.8777621,2.293177
45 St Martin s Lane Westminster Borough London WC2N 4HX United Kingdom,9.07413441955,1.20297378729,-1.94709331774,491,St Martins Lane A Morgans Original,London,51.5104696,-0.1265824
46 Avenue George V 8th arr 75008 Paris France,8.90857142857,1.18256237954,-1.45853035063,35,H tel Barri re Le Fouquet s,Paris,48.8710709,2.3013119
46 Blackfriars Road Southwark London SE1 8NZ United Kingdom,8.72388758782,1.36994597971,-1.42141427405,427,Novotel London Blackfriars,London,51.5050165,-0.1049831
46 Rue De Tr vise 9th arr 75009 Paris France,9.228,1.36458784987,-2.94984010841,25,Hotel Villa Lafayette Paris IX,Paris,48.8760884,2.3456465
46 Westferry Circus Tower Hamlets London E14 8RS United Kingdom,8.93550724638,1.42761097589,-2.15178903766,138,Canary Riverside Plaza Hotel,London,51.5066991,-0.0280208
47 Welbeck Street Westminster Borough London W1G 8DN United Kingdom,8.85701624815,1.3332897278,-1.54809374079,677,The Marylebone Hotel,London,51.5180207,-0.1500567
48 Rue De L arbre Sec 1st arr 75001 Paris France,8.77142857143,1.43161298489,-1.8167864247,119,L Empire Paris,Paris,48.8607764,2.3427564
49 50 St John s Square Islington London EC1V 4JJ United Kingdom,8.96774193548,1.07250084593,-1.81323265307,31,The Zetter Townhouse Clerkenwell,London,51.5231564,-0.1035134
49 53 New Road Tower Hamlets London E1 1HH United Kingdom,7.63482428115,1.79269387549,-0.811151624356,313,The Whitechapel,London,51.5161286,-0.0624458
49 Avenue Marceau 16th arr 75116 Paris France,8.24801762115,1.78717977258,-1.12649125531,227,Suites H tel Helzear Champs Elys es,Paris,48.8691399,2.2981024
49 Gloucester Place Marble Arch Westminster Borough London W1U 8JE United Kingdom,7.01147540984,1.91704820968,-0.321079577589,122,St George Hotel,London,51.5182768,-0.1583511
49 Rue La Fayette 9th arr 75009 Paris France,8.17306501548,1.5668693969,-0.961401274223,323,Best Western Premier Op ra Faubourg Ex Hotel Jules ,Paris,48.8753359,2.3414617
49 rue Pierre Charron 8th arr 75008 Paris France,8.60714285714,1.33673786954,-0.429627750038,14,Pershing Hall,Paris,48.8691325,2.3021659
5 7 Princes Square Kensington and Chelsea London W2 4NP United Kingdom,7.3943123061,1.94382781682,-0.431463471419,967,The Premier Notting Hill,London,51.5127453,-0.1926437
5 7 Rue De Montalembert 7th arr 75007 Paris France,8.62096774194,1.78446273283,-1.51171469278,62,H tel Pont Royal,Paris,48.8565629,2.3273623
5 7 Rue Th r se 1st arr 75001 Paris France,9.07424242424,1.03279219935,-1.19578316999,132,H tel Th r se,Paris,48.8816306,2.2992146
5 7 rue Rampon 11th arr 75011 Paris France,9.14262295082,1.1377749805,-1.91869512229,122,Le G n ral H tel,Paris,48.8662695,2.3668616
5 Cavell Street Tower Hamlets London E1 2BP United Kingdom,8.64854111406,1.36145816855,-1.39685593454,377,Holiday Inn London Whitechapel,London,51.5154006,-0.0572364
5 Curzon St Westminster Borough London W1J 5HL United Kingdom,7.90888252149,1.75186923264,-0.767493879638,698,Washington Mayfair Hotel,London,51.5060237,-0.151078
5 Fairmont Avenue Canary Wharf Tower Hamlets London E14 9JB United Kingdom,9.00783972125,1.31535411395,-1.90169255992,1148,Radisson Blu Edwardian New Providence Wharf,London,51.5065578,-0.004514
5 More London Place Tooley Street Southwark London SE1 2BY United Kingdom,8.624375,1.39819957873,-1.15049409685,800,Hilton London Tower Bridge,London,51.504575,-0.082675
5 Olympic Way Wembley Brent London HA9 0NP United Kingdom,8.90456,1.29140287421,-1.77458162527,1250,Novotel London Wembley,London,51.5611271,-0.2787261
5 Rue Belidor 17th arr 75017 Paris France,8.93796296296,1.14726147665,-1.30011440519,108,Les Jardins De La Villa Spa,Paris,48.8801757,2.2859534
5 Rue De Malte 11th arr 75011 Paris France,8.95853658537,1.37813178423,-1.73167187924,82,My Home In Paris,Paris,48.8636049,2.3688352
5 Rue Marivaux 2nd arr 75002 Paris France,9.30551181102,1.06139374429,-2.59825344653,127,La Maison Favart,Paris,48.870808,2.3372737
5 Rue Saint Roch 1st arr 75001 Paris France,8.97627118644,1.19616326055,-1.40930714755,59,Le Pradey,Paris,48.8645309,2.3315532
5 Rue de Montyon 9th arr 75009 Paris France,6.82727272727,2.02396157437,-0.319054982395,33,Mercure Paris Op ra Faubourg Montmartre,Paris,48.8729639,2.3444899
5 Threadneedle Street City of London London EC2R 8AY United Kingdom,8.81326530612,1.30010948297,-1.39093864922,196,Threadneedles Autograph Collection,London,51.5140208,-0.0854919
5 bis rue Massenet 16th arr 75016 Paris France,8.06346153846,1.68302119173,-0.817375900132,52,Best Western Premier Trocadero La Tour,Paris,48.8583127,2.2795075
5 place de l Od on 6th arr 75006 Paris France,8.27666666667,1.88399489957,-1.18288146862,30,Le Relais M dicis,Paris,48.8497618,2.3392336
5 rue Louis Codet 7th arr 75007 Paris France,8.93190661479,1.40211665572,-2.00145547917,257,Le Cinq Codet,Paris,48.8547869,2.3084819
5 rue de Berri 8th arr 75008 Paris France,8.06853658537,1.7978417664,-1.05560016122,410,Warwick Paris Former Warwick Champs Elysees ,Paris,48.8722019,2.3030866
5 rue de Ponthieu 8th arr 75008 Paris France,7.6990990991,1.79045425904,-0.652608619049,111,Best Western Plus Elys e Secret,Paris,48.8701247,2.311141
5 rue de la Paix 2nd arr 75002 Paris France,9.14827586207,0.982933179554,-1.79324744046,29,Park Hyatt Paris Vendome,Paris,48.8688155,2.3305236
5 rue des Arquebusiers 3rd arr 75003 Paris France,8.32644067797,1.53360737278,-1.36376855327,295,Villa Beaumarchais,Paris,48.8589516,2.3670407
5 rue des Capucines 1st arr 75001 Paris France,8.575,1.55406199865,-1.44476290297,116,H tel Mansart Esprit de France,Paris,48.8684776,2.3298238
5 rue du 8 Mai 1945 10th arr 75010 Paris France,7.76182462356,1.84581773794,-0.831870573166,1129,Holiday Inn Paris Gare de l Est,Paris,48.8758981,2.3590504
50 Berners Street Westminster Borough London W1T 3NG United Kingdom,9.08611111111,1.29007583716,-2.156242213,324,Sanderson A Morgans Hotel,London,51.5174853,-0.1372109
50 Great Cumberland Place Westminster Borough London W1H 7FD United Kingdom,9.23926701571,1.03840844155,-2.55778743738,191,The Arch London,London,51.5159214,-0.1598794
50 Lancaster Gate Westminster Borough London W2 3NA United Kingdom,6.55435466946,2.05464845695,-0.135845464581,953,Commodore Hotel,London,51.5124496,-0.1795215
50 rue de Richelieu 1st arr 75001 Paris France,8.36078431373,1.68547415914,-1.16809494984,102,Golden Tulip Washington Opera,Paris,48.866242,2.3373169
50 rue des Bernardins 5th arr 75005 Paris France,9.33801169591,0.837654020874,-1.7647013408,171,Residence Henri IV,Paris,48.8481917,2.3490316
51 57 rue de Courcelles 8th arr 75008 Paris France,8.07270029674,1.99987264679,-0.981792387423,337,Hotel du Collectionneur Arc de Triomphe,Paris,48.8769204,2.3069132
51 Gloucester Terrace Westminster Borough London W2 3DQ United Kingdom,8.75236363636,1.44523627704,-1.93248787785,275,The Westbourne Hyde Park,London,51.5131074,-0.1778707
51 Rue Lauriston 16th arr 75016 Paris France,7.34615384615,1.80479568079,-0.596331655536,39,Mercure Paris Champs Elys es,Paris,48.8699731,2.2909401
51 Rue de Malte 11th arr 75011 Paris France,9.1914893617,0.875966494107,-1.96064189714,47,Hotel Le Mareuil,Paris,48.8659899,2.3674149
51 rue Letort 18th arr 75018 Paris France,7.42906976744,2.12413948136,-0.673638322025,86,Best Western Le 18 Paris,Paris,48.8966167,2.3434843
52 54 Upper Richmond Road Wandsworth London SW15 2RN United Kingdom,8.10707070707,1.71373145851,-0.993497874074,297,The Lodge Hotel Putney,London,51.4572991,-0.2055425
52 56 Inverness Terrace Westminster Borough London W2 3LB United Kingdom,7.9619047619,1.68625903114,-0.852627959561,1029,Shaftesbury Hyde Park International,London,51.5123968,-0.186124
52 Chiswell Street City of London London EC1Y 4SD United Kingdom,8.76185410334,1.46045596192,-1.5225155506,1316,The Montcalm At Brewery London City,London,51.5208155,-0.0915319
52 Rue Oradour sur Glane 15th arr 75015 Paris France,8.00992647059,1.66190571991,-0.711195006064,272,Oceania Paris Porte De Versailles,Paris,48.8303023,2.2842872
52 rue Francois 1er 8th arr 75008 Paris France,8.55254237288,1.50297361223,-1.23715708446,236,H tel Powers,Paris,48.8691409,2.3031503
52 rue Jenner 13th arr 75013 Paris France,6.38510638298,2.08920400105,-0.200950893312,47,Villa Lut ce Port Royal,Paris,48.8364204,2.3603332
53 59 Kilburn High Road Maida Vale London Camden London NW6 5SB United Kingdom,6.8818404908,1.8959970892,-0.237570511142,815,BEST WESTERN Maitrise Hotel Maida Vale,London,51.5366053,-0.1919832
53 61 Southwark Bridge Road Southwark London SE1 9HH United Kingdom,8.58621794872,1.38302843198,-1.17776673588,312,Novotel London City South,London,51.5054832,-0.0951196
53 Park Lane Westminster Borough London W1K 1QA United Kingdom,9.20355555556,1.1224915597,-2.00311805538,225,The Dorchester Dorchester Collection,London,51.5074007,-0.1524593
53 Rue Richard Lenoir 11th arr 75011 Paris France,7.87352941176,1.78907608178,-0.935145815209,34,Mercure Paris Bastille Marais,Paris,48.8571207,2.3805581
53 Upper Street Islington London N1 0UY United Kingdom,8.68343465046,1.3327221417,-1.23214738893,658,Hilton London Angel Islington,London,51.5360906,-0.1048176
54 Queens Gate Kensington and Chelsea London SW7 5JW United Kingdom,8.27193548387,1.42582042324,-0.890050021533,310,Fifty Four Boutique Hotel,London,51.4963008,-0.1796853
54 Rue Saint Louis En L Ile 4th arr 75004 Paris France,8.97924528302,1.14123717172,-1.39625109051,106,H tel Du Jeu De Paume,Paris,48.8520377,2.3557092
54 Upper Berkeley Street Westminster Borough London W1H 7QR United Kingdom,8.58383458647,1.46160997911,-1.23011598035,266,The Sumner Hotel,London,51.5152892,-0.160898
54 Uxbridge Road Shepherds Bush Hammersmith and Fulham London W12 8LP United Kingdom,8.74592592593,1.34197816321,-1.38041857122,405,W12 Rooms,London,51.5045326,-0.2191174
54 rue Pierre Charron 8th arr 75008 Paris France,8.5420212766,1.52648285391,-1.4281503315,188,Chateau Frontenac,Paris,48.8689468,2.3026559
55 57 Avenue Raymond Poincare 16th arr 75016 Paris France,8.23846153846,1.61989553319,-0.794498327375,26,Renaissance Paris Le Parc Trocadero Hotel,Paris,48.8673099,2.2856528
55 61 Westbourne Terrace Westminster Borough London W2 3UY United Kingdom,7.224385511,1.89413174279,-0.338973518831,1546,Shaftesbury Premier London Paddington,London,51.5153672,-0.1783271
55 Bld Rochechouart 9th arr 75009 Paris France,7.45333333333,1.79982520999,-0.491791739757,90,Hotel Carlton s Montmartre,Paris,48.8819068,2.3410005
55 rue Monge 5th arr 75005 Paris France,9.50782608696,0.829092489083,-2.24784428722,115,Hotel Monge,Paris,48.8447938,2.3524462
56 57 Frith Street Westminster Borough London W1D 3JG United Kingdom,8.23948717949,1.74317021827,-1.03897579144,390,Mimi s Hotel Soho,London,51.5140329,-0.1320651
56 rue de Montorgueil 2nd arr 75002 Paris France,7.1914893617,1.79489975344,-0.389055401654,47,Victoires Opera,Paris,48.8648997,2.3469433
57 59 Welbeck Street Westminster Borough London W1G 9BL United Kingdom,7.3882231405,1.78469619867,-0.494308860483,484,Holiday Inn London Oxford Circus,London,51.516843,-0.1495574
58 Shepherds Bush Green Hammersmith and Fulham London W12 8QE United Kingdom,8.61786561265,1.47952166758,-1.37685382745,1265,Dorsett Shepherds Bush,London,51.5039399,-0.2244232
59 Leinster Square Kensington and Chelsea London W2 4PS United Kingdom,7.57511415525,1.67385866909,-0.523098660723,876,New Linden Hotel,London,51.5133832,-0.1926617
6 8 Rue Duphot 1st arr 75001 Paris France,9.0225,1.27570180463,-2.1758301368,160,Le Burgundy Paris,Paris,48.8680055,2.3260075
6 Avenue Fr miet 16th arr 75016 Paris France,8.05,2.26331807213,-1.26510928213,24,Hotel Sezz Paris,Paris,48.8566336,2.2852607
6 Avenue Montaigne 8th arr 75008 Paris France,7.82471910112,1.69894893302,-0.746335087793,89,Hotel Montaigne,Paris,48.865467,2.3038811
6 Avenue Victor Hugo 16th arr 75116 Paris France,7.45333333333,1.71631211402,-0.394475350846,45,Hotel Royal Elys es,Paris,48.8729666,2.2926226
6 Boulevard Vincent Auriol 13th arr 75013 Paris France,8.1136,1.50971819631,-0.925123934566,125,Mercure Paris Bercy Biblioth que,Paris,48.8370334,2.372322
6 Frith Street Soho Westminster Borough London W1D 3JA United Kingdom,9.06265560166,1.12243021389,-1.98086200336,241,Hazlitt s,London,51.5143447,-0.1318157
6 Hercules Road Lambeth London SE1 7DP United Kingdom,8.66648550725,1.48297659046,-1.4898684632,552,Park Plaza London Waterloo,London,51.4982412,-0.1134715
6 Holywell Lane Hackney London EC2A 3ET United Kingdom,9.09200477327,1.12303801143,-1.91462815978,838,citizenM London Shoreditch,London,51.5241373,-0.0786983
6 Rue Blaise Desgoffe 6th arr 75006 Paris France,8.12083333333,2.13296673707,-1.40647378959,24,Victoria Palace Hotel,Paris,48.8457587,2.3243071
6 Rue Constance 18th arr 75018 Paris France,9.25054945055,1.01571884855,-2.35678437733,182,Le Relais Montmartre,Paris,48.8854538,2.3335809
6 Rue De La Tour 16th arr 75016 Paris France,8.92450980392,1.35868575655,-1.70813846804,102,Hotel Maison FL,Paris,48.8396395,2.2663056
6 Rue Lecluse 17th arr 75017 Paris France,9.43666666667,0.781449244256,-1.80151450449,90,B Montmartre,Paris,48.883631,2.3257643
6 Rue Pierre Demours 17th arr 75017 Paris France,9.10989010989,1.18481643633,-2.35446095848,91,H tel Regent s Garden,Paris,48.8797513,2.2919634
6 Rue Saint Lambert 15th arr 75015 Paris France,7.828,2.052543138,-0.897292837893,25,Mercure Paris 15 Porte de Versailles,Paris,48.8382542,2.2903494
6 Rue Saint Placide 6th arr 75006 Paris France,8.32083333333,1.55367143487,-1.41514964245,24,Hotel Le Placide Saint Germain Des Pr s,Paris,48.8498439,2.3244253
6 Rue de l Arcade 8th arr 75008 Paris France,6.91886792453,2.10184276626,-0.281374853271,159,Amarante Beau Manoir,Paris,48.870994,2.3235329
